{"type": "FeatureCollection", "generator": "overpass-turbo", "copyright": "The data included in this document is from www.openstreetmap.org. The data is made available under ODbL.", "timestamp": "2026-07-10T16:21:01Z", "features": [{"type": "Feature", "properties": {"@id": "node/26862965", "ele": "1788", "name": "Братківська Велика", "name:en": "Bratkivska Velyka", "name:pl": "Bratkowska Duża", "name:ru": "Братковская Великая", "name:uk": "Братківська Велика", "natural": "peak", "prominence": "595", "wikidata": "Q4095906", "wikipedia": "uk:Братківська"}, "geometry": {"type": "Point", "coordinates": [24.1787272, 48.365317]}, "id": "node/26862965"}, {"type": "Feature", "properties": {"@id": "node/26862966", "ele": "1691", "name": "Буштул", "name:en": "Bushtul", "name:pl": "Busztuł", "name:uk": "Буштул", "natural": "peak", "wikidata": "Q4100699", "wikipedia": "uk:Буштул"}, "geometry": {"type": "Point", "coordinates": [23.9250464, 48.4644412]}, "id": "node/26862966"}, {"type": "Feature", "properties": {"@id": "node/26862968", "ele": "1081", "name": "Бужора", "name:en": "Buzhora", "name:pl": "Bużora", "name:uk": "Бужора", "natural": "peak", "prominence": "731", "wikidata": "Q4098320", "wikipedia": "uk:Бужора"}, "geometry": {"type": "Point", "coordinates": [23.1433331, 48.433889]}, "id": "node/26862968"}, {"type": "Feature", "properties": {"@id": "node/26862971", "ele": "1018", "name": "Дунавка", "name:en": "Dunavka", "name:uk": "Дунавка", "natural": "peak", "prominence": "620", "wikidata": "Q166143", "wikipedia": "uk:Синяк (гірський масив)"}, "geometry": {"type": "Point", "coordinates": [22.8723477, 48.6106623]}, "id": "node/26862971"}, {"type": "Feature", "properties": {"@id": "node/26862972", "ele": "1748", "name": "Ґрофа", "name:en": "Grofa", "name:pl": "Grofa", "name:ru": "Грофа", "name:uk": "Ґрофа", "natural": "peak", "prominence": "616", "wikidata": "Q4150372", "wikipedia": "uk:Ґрофа", "wikipedia:pl": "Grofa"}, "geometry": {"type": "Point", "coordinates": [23.932408, 48.6203079]}, "id": "node/26862972"}, {"type": "Feature", "properties": {"@id": "node/26862974", "ele": "1578", "name": "Кам’янка", "name:en": "Kamianka", "name:ru": "Каменка", "name:uk": "Кам’янка", "natural": "peak", "prominence": "588", "wikidata": "Q16565187", "wikipedia": "uk:Кам'янка (гора)"}, "geometry": {"type": "Point", "coordinates": [23.6289649, 48.5580584]}, "id": "node/26862974"}, {"type": "Feature", "properties": {"@id": "node/26862976", "ele": "1501", "name": "Менчул", "name:en": "Menchul", "name:hu": "Mencsely", "name:pl": "Menczuł", "name:uk": "Менчул", "natural": "peak", "prominence": "591", "source": "SRTM, Bing", "summit:cross": "yes", "wikidata": "Q13667714", "wikipedia": "uk:Манчул"}, "geometry": {"type": "Point", "coordinates": [23.6801199, 48.3138069]}, "id": "node/26862976"}, {"type": "Feature", "properties": {"@id": "node/26862978", "ele": "1724", "name": "Молода", "name:en": "Moloda", "name:pl": "Mołoda", "name:uk": "Молода", "natural": "peak", "prominence": "638", "wikidata": "Q4300538", "wikipedia": "uk:Молода"}, "geometry": {"type": "Point", "coordinates": [23.869828, 48.6564545]}, "id": "node/26862978"}, {"type": "Feature", "properties": {"@id": "node/26862982", "alt_name": "Сиглянська", "ele": "1564", "name": "Сигланський", "name:en": "Syhlanskyi", "name:hu": "Rózsa-havas", "name:pl": "Syhłański", "name:ru": "Сигланский", "name:uk": "Сигланський", "natural": "peak", "wikidata": "Q20092971", "wikipedia": "uk:Сигланський", "wikipedia:pl": "Syhłański"}, "geometry": {"type": "Point", "coordinates": [23.7941666, 48.3630555]}, "id": "node/26862982"}, {"type": "Feature", "properties": {"@id": "node/26862984", "alt_name": "Стой", "alt_name:en": "Stoy", "ele": "1681", "name": "Стій", "name:cs": "Stij", "name:en": "Stii", "name:pl": "Stij", "name:ru": "Стой", "name:uk": "Стій", "natural": "peak", "prominence": "949", "wikidata": "Q1986372", "wikipedia": "uk:Стій (гора)"}, "geometry": {"type": "Point", "coordinates": [23.1910631, 48.6214466]}, "id": "node/26862984"}, {"type": "Feature", "properties": {"@id": "node/26862985", "ele": "1719", "name": "Стримба", "name:en": "Strymba", "name:pl": "Strymba", "name:uk": "Стримба", "natural": "peak", "prominence": "557", "wikidata": "Q4444012", "wikipedia": "uk:Стримба (гора)"}, "geometry": {"type": "Point", "coordinates": [23.8005815, 48.4381252]}, "id": "node/26862985"}, {"type": "Feature", "properties": {"@id": "node/26862988", "alt_name": "Тяпеш", "ele": "1324", "name": "Тапеш", "name:en": "Tapesh", "name:pl": "Tapesz", "name:uk": "Тапеш", "natural": "peak", "prominence": "606", "summit:cross": "yes", "wikidata": "Q31519958"}, "geometry": {"type": "Point", "coordinates": [23.638715, 48.4233453]}, "id": "node/26862988"}, {"type": "Feature", "properties": {"@id": "node/26862989", "ele": "878", "name": "Тупий", "name:en": "Tupyi", "name:pl": "Tupoj", "name:ru": "Тупой", "name:uk": "Тупий", "natural": "peak", "prominence": "598", "wikidata": "Q4141050", "wikipedia": "uk:Тупий (гора)"}, "geometry": {"type": "Point", "coordinates": [23.2510016, 48.2701665]}, "id": "node/26862989"}, {"type": "Feature", "properties": {"@id": "node/26863220", "ele": "1881", "name": "Близниця Велика", "name:cs": "Velká Bliznica", "name:en": "Blyznytsia Velyka", "name:pl": "Bliźnica", "name:uk": "Близниця Велика", "natural": "peak", "wikidata": "Q4088161", "wikipedia": "uk:Близниця"}, "geometry": {"type": "Point", "coordinates": [24.2311852, 48.2224943]}, "id": "node/26863220"}, {"type": "Feature", "properties": {"@id": "node/26864714", "ele": "1421", "name": "Смерек", "name:en": "Smerek", "name:uk": "Смерек", "natural": "peak", "prominence": "622"}, "geometry": {"type": "Point", "coordinates": [23.5275787, 48.6567062]}, "id": "node/26864714"}, {"type": "Feature", "properties": {"@id": "node/262306915", "alt_name": "Чорна Гора", "ele": "2028", "name": "Піп Іван Чорногірський", "name:cs": "Pop Ivan Černohorský", "name:de": "Pip Iwan Tschornohirski", "name:en": "Pip Ivan Chornohirskyi", "name:hr": "Pip Ivan Čornohirski", "name:hu": "Pop Iván", "name:pl": "Pop Iwan Czarnohorski", "name:ru": "Поп Иван Черногорский", "name:uk": "Піп Іван Чорногірський", "natural": "peak", "prominence": "201", "wikidata": "Q2003560", "wikipedia": "uk:Піп Іван (Чорногора)"}, "geometry": {"type": "Point", "coordinates": [24.6275136, 48.0469688]}, "id": "node/262306915"}, {"type": "Feature", "properties": {"@id": "node/262307452", "ele": "1898", "name": "Смотрич", "name:en": "Smotrych", "name:pl": "Smotrec", "name:ru": "Смотрич", "name:uk": "Смотрич", "natural": "peak", "wikidata": "Q4425273", "wikipedia": "uk:Смотрич (гора)"}, "geometry": {"type": "Point", "coordinates": [24.6440549, 48.0692062]}, "id": "node/262307452"}, {"type": "Feature", "properties": {"@id": "node/703286388", "description": "Найвища точка України", "ele": "2061", "name": "Говерла", "name:de": "Howerla", "name:en": "Hoverla", "name:hr": "Hoverla", "name:hu": "Hoverla", "name:pl": "Howerla", "name:ru": "Говерла", "name:uk": "Говерла", "natural": "peak", "old_name:hu": "Hóvár", "prominence": "721", "wikidata": "Q627508", "wikipedia": "uk:Говерла", "wikipedia:pl": "Howerla"}, "geometry": {"type": "Point", "coordinates": [24.4999403, 48.1602098]}, "id": "node/703286388"}, {"type": "Feature", "properties": {"@id": "node/703286396", "ele": "1836", "name": "Сивуля Велика", "name:en": "Syvulia Velyka", "name:pl": "Sywula Wielka", "name:uk": "Сивуля Велика", "natural": "peak", "prominence": "776", "wikidata": "Q4418523", "wikipedia": "uk:Велика Сивуля"}, "geometry": {"type": "Point", "coordinates": [24.119314, 48.5492091]}, "id": "node/703286396"}, {"type": "Feature", "properties": {"@id": "node/703286466", "ele": "1480", "name": "Полонина Руна", "name:en": "Polonyna Runa", "name:pl": "Połonia Równa", "name:ru": "Полонина Руна", "name:uk": "Полонина Руна", "natural": "peak", "prominence": "728", "summit:cross": "yes", "wikidata": "Q218703", "wikipedia": "uk:Полонина-Руна"}, "geometry": {"type": "Point", "coordinates": [22.8087416, 48.7994434]}, "id": "node/703286466"}, {"type": "Feature", "properties": {"@id": "node/918903014", "ele": "2020", "name": "Петрос", "name:en": "Petros", "name:pl": "Petros", "name:uk": "Петрос", "natural": "peak", "prominence": "495", "wikidata": "Q1419635", "wikipedia": "uk:Петрос (Чорногора)", "wikipedia:pl": "Petros (Czarnohora)"}, "geometry": {"type": "Point", "coordinates": [24.4214656, 48.1720069]}, "id": "node/918903014"}, {"type": "Feature", "properties": {"@id": "node/943552660", "ele": "1762", "name": "Геришаска", "name:cs": "Gerišaska", "name:en": "Heryshaska", "name:uk": "Геришаска", "natural": "peak"}, "geometry": {"type": "Point", "coordinates": [24.1621376, 48.2737882]}, "id": "node/943552660"}, {"type": "Feature", "properties": {"@id": "node/943670018", "ele": "1704", "name": "Стіг", "name:en": "Stih", "name:ru": "Стог", "name:uk": "Стіг", "natural": "peak", "wikidata": "Q4442697", "wikipedia": "uk:Стіг (Свидовець)"}, "geometry": {"type": "Point", "coordinates": [24.2241052, 48.2508932]}, "id": "node/943670018"}, {"type": "Feature", "properties": {"@id": "node/1139828036", "ele": "1312", "name": "Плеска", "name:en": "Pleska", "name:ru": "Плеска", "name:uk": "Плеска", "natural": "peak"}, "geometry": {"type": "Point", "coordinates": [24.0300974, 48.229112]}, "id": "node/1139828036"}, {"type": "Feature", "properties": {"@id": "node/1239624936", "alt_name": "Мунчел", "alt_name:en": "Munchel", "alt_name:pl": "Munczeł", "alt_name:sk": "Munčel", "alt_name:uk": "Мунчел", "ele": "1998", "name": "Менчул", "name:en": "Menchul", "name:pl": "Menczuł", "name:ro": "Munteul", "name:sk": "Menčul", "name:uk": "Менчул", "natural": "peak", "source": "wikipedia", "wikidata": "Q4307574", "wikipedia": "uk:Менчул"}, "geometry": {"type": "Point", "coordinates": [24.5955542, 48.0906494]}, "id": "node/1239624936"}, {"type": "Feature", "properties": {"@id": "node/1239733958", "ele": "1773", "name": "Шурин", "name:en": "Shuryn", "name:uk": "Шурин", "natural": "peak", "source": "wikipedia", "wikipedia": "uk:Шурин (гора)"}, "geometry": {"type": "Point", "coordinates": [24.648195, 48.0312659]}, "id": "node/1239733958"}, {"type": "Feature", "properties": {"@id": "node/1239733959", "alt_name": "Брецкул", "ele": "1911", "name": "Брескул", "name:en": "Breskul", "name:pl": "Breskuł", "name:uk": "Брескул", "natural": "peak", "source": "wikipedia", "wikidata": "Q4096324", "wikipedia": "uk:Брескул (гора)"}, "geometry": {"type": "Point", "coordinates": [24.5105442, 48.1503339]}, "id": "node/1239733959"}, {"type": "Feature", "properties": {"@id": "node/1239733960", "ele": "1804", "name": "Ігровець", "name:en": "Ihrovets", "name:pl": "Ihrowiec", "name:uk": "Ігровець", "natural": "peak", "source": "wikipedia", "wikidata": "Q4197726", "wikipedia": "uk:Ігровець"}, "geometry": {"type": "Point", "coordinates": [24.0997355, 48.5975947]}, "id": "node/1239733960"}, {"type": "Feature", "properties": {"@id": "node/1239733969", "ele": "2001", "name": "Ребра", "name:en": "Rebra", "name:pl": "Rebra", "name:uk": "Ребра", "natural": "peak", "source": "wikipedia", "wikidata": "Q683191", "wikipedia": "uk:Ребра (гора)"}, "geometry": {"type": "Point", "coordinates": [24.5585636, 48.1111947]}, "id": "node/1239733969"}, {"type": "Feature", "properties": {"@id": "node/1239733970", "ele": "1728", "name": "Шешул", "name:en": "Sheshul", "name:uk": "Шешул", "natural": "peak", "source": "wikipedia", "wikidata": "Q4523543", "wikipedia": "uk:Шешул"}, "geometry": {"type": "Point", "coordinates": [24.3671177, 48.1502492]}, "id": "node/1239733970"}, {"type": "Feature", "properties": {"@id": "node/1239733978", "ele": "1761", "name": "Догяска", "name:en": "Dohiaska", "name:uk": "Догяска", "natural": "peak", "source": "wikipedia", "wikidata": "Q4164111", "wikipedia": "uk:Догяска"}, "geometry": {"type": "Point", "coordinates": [24.1618444, 48.2675217]}, "id": "node/1239733978"}, {"type": "Feature", "properties": {"@id": "node/1239733982", "ele": "1848", "name": "Петросул", "name:en": "Petrosul", "name:uk": "Петросул", "natural": "peak", "source": "wikipedia", "wikidata": "Q4361627", "wikipedia": "uk:Петросул"}, "geometry": {"type": "Point", "coordinates": [24.4180355, 48.1805218]}, "id": "node/1239733982"}, {"type": "Feature", "properties": {"@id": "node/1239733983", "ele": "2016", "name": "Гутин Томнатик", "name:en": "Hutyn Tomnatyk", "name:uk": "Гутин Томнатик", "natural": "peak", "source": "wikipedia", "wikidata": "Q4152998", "wikipedia": "uk:Гутин Томнатик"}, "geometry": {"type": "Point", "coordinates": [24.5566509, 48.0994397]}, "id": "node/1239733983"}, {"type": "Feature", "properties": {"@id": "node/1239733986", "ele": "1933", "name": "Туркул", "name:en": "Turkul", "name:pl": "Turkuł", "name:ru": "Туркул", "name:uk": "Туркул", "natural": "peak", "prominence": "153", "source": "wikipedia", "wikidata": "Q4466192", "wikipedia": "uk:Туркул"}, "geometry": {"type": "Point", "coordinates": [24.5305076, 48.1234886]}, "id": "node/1239733986"}, {"type": "Feature", "properties": {"@id": "node/1239733991", "ele": "1863", "name": "Шпиці", "name:en": "Shpytsi", "name:pl": "Szpyci", "name:uk": "Шпиці", "natural": "peak", "source": "wikipedia", "wikipedia": "uk:Шпиці"}, "geometry": {"type": "Point", "coordinates": [24.567254, 48.125624]}, "id": "node/1239733991"}, {"type": "Feature", "properties": {"@id": "node/1239733996", "ele": "2038", "name": "Бребенескул", "name:de": "Brebeneskul", "name:en": "Brebeneskul", "name:hr": "Brebeneskul", "name:pl": "Brebeneskuł", "name:uk": "Бребенескул", "natural": "peak", "wikidata": "Q2091106", "wikipedia": "uk:Бребенескул (гора)"}, "geometry": {"type": "Point", "coordinates": [24.5800005, 48.0976087]}, "id": "node/1239733996"}, {"type": "Feature", "properties": {"@id": "node/1239733998", "ele": "1702", "name": "Трояска", "name:en": "Troiaska", "name:uk": "Трояска", "natural": "peak", "source": "wikipedia", "wikidata": "Q4464107", "wikipedia": "uk:Трояска"}, "geometry": {"type": "Point", "coordinates": [24.1460233, 48.2839375]}, "id": "node/1239733998"}, {"type": "Feature", "properties": {"@id": "node/1239734007", "ele": "1877", "name": "Дземброня", "name:en": "Dzembronia", "name:pl": "Dzembronia", "name:uk": "Дземброня", "natural": "peak", "source": "wikipedia", "wikidata": "Q4160769", "wikipedia": "uk:Дземброня (гора)"}, "geometry": {"type": "Point", "coordinates": [24.6054002, 48.0762076]}, "id": "node/1239734007"}, {"type": "Feature", "properties": {"@id": "node/1239734008", "alt_name": "Данцер;Данціж", "ele": "1855", "name": "Данциж", "name:en": "Dantsyzh", "name:pl": "Dancerz", "name:ru": "Данцер", "name:uk": "Данциж", "natural": "peak", "wikidata": "Q4154911", "wikipedia": "uk:Данцер"}, "geometry": {"type": "Point", "coordinates": [24.5314687, 48.1352947]}, "id": "node/1239734008"}, {"type": "Feature", "properties": {"@id": "node/1412214819", "ele": "1598", "name": "Великий Верх", "name:en": "Velykyi Verkh", "name:pl": "Wielki Wierch", "name:uk": "Великий Верх", "natural": "peak", "wikidata": "Q4106479", "wikipedia": "uk:Великий Верх"}, "geometry": {"type": "Point", "coordinates": [23.2296905, 48.6476253]}, "id": "node/1412214819"}, {"type": "Feature", "properties": {"@id": "node/1438158897", "ele": "1323", "name": "Плай", "name:cs": "Plaj", "name:en": "Plai", "name:uk": "Плай", "natural": "peak", "wikidata": "Q12140687", "wikipedia": "uk:Плай (Боржава)"}, "geometry": {"type": "Point", "coordinates": [23.1960707, 48.6656341]}, "id": "node/1438158897"}, {"type": "Feature", "properties": {"@id": "node/1438158993", "alt_name": "Темнатик", "ele": "1343", "name": "Темнатик", "name:en": "Temnatyk", "name:uk": "Темнатик", "natural": "peak", "wikidata": "Q4454479", "wikipedia": "uk:Томнатик"}, "geometry": {"type": "Point", "coordinates": [23.1697328, 48.6748107]}, "id": "node/1438158993"}, {"type": "Feature", "properties": {"@id": "node/1438159058", "alt_name": "Воскресенський Верх", "alt_name:en": "Voskresenskyi Verkh", "ele": "1219", "name": "Цицька", "name:en": "Tsytska", "name:ru": "Цыцька", "name:uk": "Воскресенський Верх", "natural": "peak"}, "geometry": {"type": "Point", "coordinates": [23.1701535, 48.6860925]}, "id": "node/1438159058"}, {"type": "Feature", "properties": {"@id": "node/1488772671", "alt_name": "Ґемба", "ele": "1491", "name": "Ґимба", "name:en": "Gymba", "name:ru": "Гымба", "name:uk": "Ґимба", "natural": "peak", "old_name": "Обнога", "wikidata": "Q4135140", "wikipedia": "uk:Ґемба"}, "geometry": {"type": "Point", "coordinates": [23.2682363, 48.6326961]}, "id": "node/1488772671"}, {"type": "Feature", "properties": {"@id": "node/1585166950", "ele": "1127", "name": "Буковель", "name:en": "Bukovel", "name:ru": "Буковель", "name:uk": "Буковель", "natural": "peak"}, "geometry": {"type": "Point", "coordinates": [24.4111212, 48.348797]}, "id": "node/1585166950"}, {"type": "Feature", "properties": {"@id": "node/1585166951", "ele": "1371", "name": "Довга", "name:en": "Dovha", "name:ru": "Довга", "name:uk": "Довга", "natural": "peak", "wikidata": "Q4163964"}, "geometry": {"type": "Point", "coordinates": [24.3692396, 48.3681712]}, "id": "node/1585166951"}, {"type": "Feature", "properties": {"@id": "node/1585166956", "ele": "1246", "name": "Чорна Клева", "name:en": "Chorna Kleva", "name:ru": "Чёрная Клева", "name:uk": "Чорна Клева", "natural": "peak"}, "geometry": {"type": "Point", "coordinates": [24.3839083, 48.3608062]}, "id": "node/1585166956"}, {"type": "Feature", "properties": {"@id": "node/1760688922", "ele": "1513", "name": "Розтіцька", "name:en": "Roztitska", "name:ru": "Ростоцкая", "name:uk": "Розтіцька", "natural": "peak", "source": "wikipedia", "wikidata": "Q4398569", "wikipedia": "uk:Розтіцька", "wikipedia:ru": "Ростоцкая"}, "geometry": {"type": "Point", "coordinates": [24.7943401, 48.0680977]}, "id": "node/1760688922"}, {"type": "Feature", "properties": {"@id": "node/1760690309", "ele": "1552", "name": "Шкорушний", "name:en": "Shkorushnyi", "name:uk": "Шкорушний", "natural": "peak", "source": "wikipedia", "wikipedia": "uk:Шкорушний (гора)"}, "geometry": {"type": "Point", "coordinates": [24.7060933, 48.057893]}, "id": "node/1760690309"}, {"type": "Feature", "properties": {"@id": "node/1760691696", "ele": "1743", "name": "Стайки", "name:en": "Staiky", "name:uk": "Стайки", "natural": "peak", "source": "wikipedia", "wikipedia": "uk:Стайки (гора)"}, "geometry": {"type": "Point", "coordinates": [24.678972, 48.0542489]}, "id": "node/1760691696"}, {"type": "Feature", "properties": {"@id": "node/1760723783", "ele": "1730", "name": "Васкул", "name:en": "Vaskul", "name:pl": "Waskul", "name:ru": "Васкул", "name:uk": "Васкул", "natural": "peak", "source": "wikipedia"}, "geometry": {"type": "Point", "coordinates": [24.6117615, 48.0367735]}, "id": "node/1760723783"}, {"type": "Feature", "properties": {"@id": "node/1760729182", "ele": "1588", "name": "Менчіль", "name:en": "Menchil", "name:uk": "Менчіль", "natural": "peak", "source": "wikipedia", "wikidata": "Q31804214"}, "geometry": {"type": "Point", "coordinates": [24.4427017, 48.1139748]}, "id": "node/1760729182"}, {"type": "Feature", "properties": {"@id": "node/1760733992", "ele": "1353", "name": "Плоска", "name:en": "Ploska", "name:uk": "Плоска", "natural": "peak", "source": "wikipedia", "wikidata": "Q4365202", "wikipedia": "uk:Плоска (гора)"}, "geometry": {"type": "Point", "coordinates": [24.2841454, 48.4013484]}, "id": "node/1760733992"}, {"type": "Feature", "properties": {"@id": "node/1760787573", "ele": "1665", "name": "Синяк", "name:en": "Syniak", "name:pl": "Syniak", "name:uk": "Синяк", "natural": "peak", "source": "wikipedia", "wikidata": "Q4420615", "wikipedia": "uk:Синяк (гора)"}, "geometry": {"type": "Point", "coordinates": [24.4573789, 48.3884235]}, "id": "node/1760787573"}, {"type": "Feature", "properties": {"@id": "node/1760803809", "ele": "1477", "name": "Біла Кобила", "name:en": "Bila Kobyla", "name:uk": "Біла Кобила", "natural": "peak", "source": "wikipedia", "wikidata": "Q4081618", "wikipedia": "uk:Біла Кобила", "wikipedia:ru": "Белая Кобыла"}, "geometry": {"type": "Point", "coordinates": [24.8006984, 48.2096543]}, "id": "node/1760803809"}, {"type": "Feature", "properties": {"@id": "node/1760803815", "ele": "1483", "name": "Ротило", "name:en": "Rotylo", "name:uk": "Ротило", "natural": "peak", "source": "wikipedia", "wikidata": "Q4398643", "wikipedia": "uk:Ротило", "wikipedia:ru": "Ротило"}, "geometry": {"type": "Point", "coordinates": [24.7477217, 48.2420613]}, "id": "node/1760803815"}, {"type": "Feature", "properties": {"@id": "node/1760803820", "ele": "1445", "name": "Габорянська", "name:en": "Haborianska", "name:uk": "Габорянська", "natural": "peak", "source": "wikipedia", "wikidata": "Q4130930", "wikipedia": "uk:Габорянська", "wikipedia:ru": "Габорянска"}, "geometry": {"type": "Point", "coordinates": [24.7771708, 48.2257583]}, "id": "node/1760803820"}, {"type": "Feature", "properties": {"@id": "node/1760803826", "ele": "1472", "name": "Ґрегіт", "name:en": "Grehit", "name:uk": "Ґрегіт", "natural": "peak", "source": "wikipedia", "wikidata": "Q4148377", "wikipedia": "uk:Ґрегіт (гора)"}, "geometry": {"type": "Point", "coordinates": [24.7787874, 48.2539331]}, "id": "node/1760803826"}, {"type": "Feature", "properties": {"@id": "node/1760813692", "ele": "1479", "name": "Хорде", "name:en": "Khorde", "name:uk": "Хорде", "natural": "peak", "source": "wikipedia", "wikidata": "Q4499890", "wikipedia": "uk:Хорде", "wikipedia:ru": "Хорде (гора)"}, "geometry": {"type": "Point", "coordinates": [24.7022789, 48.2743691]}, "id": "node/1760813692"}, {"type": "Feature", "properties": {"@id": "node/1760839391", "ele": "1803", "man_made": "cross", "name": "Висока", "name:en": "Vysoka", "name:pl": "Wysoka", "name:uk": "Висока", "natural": "peak", "source": "wikipedia", "wikidata": "Q159829", "wikipedia": "uk:Висока", "wikipedia:pl": "Wysoka (Gorgany)", "wikipedia:ru": "Висока (гора)"}, "geometry": {"type": "Point", "coordinates": [24.0955734, 48.6081973]}, "id": "node/1760839391"}, {"type": "Feature", "properties": {"@id": "node/1760839392", "ele": "1639", "name": "Середня", "name:en": "Serednia", "name:uk": "Середня", "natural": "peak", "source": "wikipedia", "wikidata": "Q4417523", "wikipedia": "uk:Середня (гора)"}, "geometry": {"type": "Point", "coordinates": [24.111601, 48.6224874]}, "id": "node/1760839392"}, {"type": "Feature", "properties": {"@id": "node/1760843090", "ele": "1736", "name": "Паренки", "name:en": "Parenky", "name:pl": "Parenki", "name:uk": "Паренки", "natural": "peak", "source": "wikipedia", "wikidata": "Q4345079", "wikipedia": "uk:Паренки", "wikipedia:pl": "Parenki", "wikipedia:ru": "Паренки"}, "geometry": {"type": "Point", "coordinates": [23.9110297, 48.5987008]}, "id": "node/1760843090"}, {"type": "Feature", "properties": {"@id": "node/1760991151", "alt_name": "Гомул", "ele": "1787", "name": "Гомул", "name:en": "Homul", "name:pl": "Homuł", "name:uk": "Гомул", "natural": "peak", "source": "wikipedia", "wikidata": "Q23979", "wikipedia": "uk:Гомул", "wikipedia:ru": "Гомул"}, "geometry": {"type": "Point", "coordinates": [24.5625934, 48.1359414]}, "id": "node/1760991151"}, {"type": "Feature", "properties": {"@id": "node/1761009904", "ele": "1465", "fixme": "Швидше за все, вершина не тут, а біля \"Жертовних каменів\"", "name": "Лисина Космацька", "name:en": "Lysyna Kosmatska", "name:uk": "Лисина Космацька", "natural": "peak", "source": "wikipedia", "wikidata": "Q4263099", "wikipedia": "uk:Лисина Космацька", "wikipedia:ru": "Лысина-Космацкая"}, "geometry": {"type": "Point", "coordinates": [24.7305647, 48.3016655]}, "id": "node/1761009904"}, {"type": "Feature", "properties": {"@id": "node/1761069859", "ele": "1707", "name": "Унгаряска", "name:en": "Unhariaska", "name:pl": "Unhariaska", "name:uk": "Унгаряска", "natural": "peak", "source": "wikipedia", "wikidata": "Q4475634", "wikipedia": "uk:Унгаряска"}, "geometry": {"type": "Point", "coordinates": [24.1163462, 48.2835651]}, "id": "node/1761069859"}, {"type": "Feature", "properties": {"@id": "node/1761069863", "ele": "1644", "name": "Мала Куртяска", "name:en": "Mala Kurtiaska", "name:uk": "Мала Куртяска", "natural": "peak", "source": "wikipedia", "wikidata": "Q4277035", "wikipedia": "uk:Мала Куртяска"}, "geometry": {"type": "Point", "coordinates": [24.0882688, 48.2835061]}, "id": "node/1761069863"}, {"type": "Feature", "properties": {"@id": "node/1761078904", "ele": "1707", "name": "Татарука", "name:en": "Tataruka", "name:uk": "Татарука", "natural": "peak", "source": "wikipedia", "wikidata": "Q4452544", "wikipedia": "uk:Татарука"}, "geometry": {"type": "Point", "coordinates": [24.1442275, 48.3015249]}, "id": "node/1761078904"}, {"type": "Feature", "properties": {"@id": "node/1761096954", "ele": "1736", "name": "Ведмежик", "name:en": "Vedmezhyk", "name:uk": "Ведмежик", "natural": "peak", "source": "wikipedia", "wikidata": "Q4105815", "wikipedia": "uk:Ведмежик"}, "geometry": {"type": "Point", "coordinates": [24.3588375, 48.4324861]}, "id": "node/1761096954"}, {"type": "Feature", "properties": {"@id": "node/1761096957", "ele": "1657", "name": "Пікун", "name:en": "Pikun", "name:uk": "Пікун", "natural": "peak", "source": "wikipedia", "wikipedia": "uk:Пікун (гора)"}, "geometry": {"type": "Point", "coordinates": [24.3474953, 48.4381424]}, "id": "node/1761096957"}, {"type": "Feature", "properties": {"@id": "node/1761096961", "ele": "1693", "name": "Полєнський", "name:en": "Polienskyi", "name:uk": "Полєнський", "natural": "peak", "source": "wikipedia", "wikidata": "Q4369765", "wikipedia": "uk:Полєнський (гора)", "wikipedia:ru": "Поленский (гора)"}, "geometry": {"type": "Point", "coordinates": [24.333419, 48.4523705]}, "id": "node/1761096961"}, {"type": "Feature", "properties": {"@id": "node/1761117521", "ele": "1677", "name": "Братківська Мала", "name:en": "Bratkivska Mala", "name:ru": "Братковская Малая", "name:uk": "Братківська Мала", "natural": "peak", "source": "wikipedia"}, "geometry": {"type": "Point", "coordinates": [24.2094763, 48.365098]}, "id": "node/1761117521"}, {"type": "Feature", "properties": {"@id": "node/1761117529", "ele": "1719", "historic": "boundary_stone", "name": "Чорна Клива", "name:en": "Chorna Klyva", "name:pl": "Czarna Klewa", "name:ru": "Черная Клева", "name:uk": "Чорна Клива", "natural": "peak", "source": "wikipedia", "wikidata": "Q4518611", "wikipedia": "uk:Чорна Клева"}, "geometry": {"type": "Point", "coordinates": [24.2564699, 48.3501656]}, "id": "node/1761117529"}, {"type": "Feature", "properties": {"@id": "node/1761121662", "ele": "1758", "name": "Ґропа", "name:en": "Gropa", "name:uk": "Ґропа", "natural": "peak", "source": "wikipedia", "wikidata": "Q4150297", "wikipedia": "uk:Ґропа"}, "geometry": {"type": "Point", "coordinates": [24.1650919, 48.3767318]}, "id": "node/1761121662"}, {"type": "Feature", "properties": {"@id": "node/1761123936", "ele": "1705", "name": "Дурня", "name:en": "Durnia", "name:uk": "Дурня", "natural": "peak", "source": "wikipedia", "wikidata": "Q7277068", "wikipedia": "uk:Дурня"}, "geometry": {"type": "Point", "coordinates": [24.1484868, 48.389412]}, "id": "node/1761123936"}, {"type": "Feature", "properties": {"@id": "node/1761981112", "ele": "1544", "name": "Кострич", "name:en": "Kostrych", "name:pl": "Kostrycz", "name:uk": "Кострич", "natural": "peak", "source": "wikipedia", "wikipedia": "uk:Кострич (гора)"}, "geometry": {"type": "Point", "coordinates": [24.6551992, 48.1695799]}, "id": "node/1761981112"}, {"type": "Feature", "properties": {"@id": "node/1761981113", "ele": "1585", "name": "Кострича", "name:en": "Kostrycha", "name:pl": "Kostrzyca", "name:uk": "Кострича", "natural": "peak", "source": "wikipedia", "wikipedia": "uk:Кострича (гора)"}, "geometry": {"type": "Point", "coordinates": [24.6353182, 48.1828772]}, "id": "node/1761981113"}, {"type": "Feature", "properties": {"@id": "node/1761988554", "ele": "1355", "name": "Хедя", "name:en": "Khedia", "name:pl": "Hadja", "name:uk": "Хедя", "natural": "peak", "source": "wikipedia", "wikipedia": "uk:Хедя (гора)"}, "geometry": {"type": "Point", "coordinates": [24.7039877, 48.1441366]}, "id": "node/1761988554"}, {"type": "Feature", "properties": {"@id": "node/1762004677", "ele": "1356", "name": "Зміїнська", "name:en": "Zmiinska", "name:pl": "Żmijeński", "name:uk": "Зміїнська", "natural": "peak", "source": "wikipedia", "wikipedia": "uk:Зміїнська (гора)"}, "geometry": {"type": "Point", "coordinates": [24.7984615, 48.0842712]}, "id": "node/1762004677"}, {"type": "Feature", "properties": {"@id": "node/1762010285", "ele": "1359", "name": "Кринта", "name:en": "Krynta", "name:pl": "Kręta", "name:uk": "Кринта", "natural": "peak", "source": "wikipedia", "wikipedia": "uk:Кринта (гора)"}, "geometry": {"type": "Point", "coordinates": [24.7739139, 48.1058258]}, "id": "node/1762010285"}, {"type": "Feature", "properties": {"@id": "node/1762040685", "ele": "1388", "name": "Під-Берди", "name:en": "Pid-Berdy", "name:uk": "Під-Берди", "natural": "peak", "source": "wikipedia"}, "geometry": {"type": "Point", "coordinates": [24.5072108, 48.2381623]}, "id": "node/1762040685"}, {"type": "Feature", "properties": {"@id": "node/1762065028", "ele": "1472", "name": "Стара", "name:cs": "Stará", "name:en": "Stara", "name:uk": "Стара", "natural": "peak", "source": "wikipedia", "wikidata": "Q31520122"}, "geometry": {"type": "Point", "coordinates": [24.2091051, 48.1813366]}, "id": "node/1762065028"}, {"type": "Feature", "properties": {"@id": "node/1762065040", "ele": "1452", "name": "Переслуп", "name:cs": "Pereslup", "name:en": "Pereslup", "name:uk": "Переслуп", "natural": "peak", "source": "wikipedia"}, "geometry": {"type": "Point", "coordinates": [24.2162749, 48.19539]}, "id": "node/1762065040"}, {"type": "Feature", "properties": {"@id": "node/1762068016", "ele": "1265", "name": "Магуриця", "name:en": "Mahurytsia", "name:uk": "Магуриця", "natural": "peak", "source": "wikipedia"}, "geometry": {"type": "Point", "coordinates": [24.1894059, 48.0971866]}, "id": "node/1762068016"}, {"type": "Feature", "properties": {"@id": "node/1762068017", "ele": "1388", "name": "Терентин", "name:en": "Terentyn", "name:uk": "Терентин", "natural": "peak", "source": "wikipedia", "wikidata": "Q31525294"}, "geometry": {"type": "Point", "coordinates": [24.2082937, 48.1083191]}, "id": "node/1762068017"}, {"type": "Feature", "properties": {"@id": "node/1762208362", "ele": "1512", "name": "Апецька", "name:en": "Apetska", "name:pl": "Apećka", "name:uk": "Апецька", "natural": "peak", "source": "wikipedia", "wikidata": "Q4067993", "wikipedia": "uk:Апецька"}, "geometry": {"type": "Point", "coordinates": [23.9975515, 48.1853541]}, "id": "node/1762208362"}, {"type": "Feature", "properties": {"@id": "node/1762208365", "ele": "1511", "name": "Апецька", "name:en": "Apetska", "name:pl": "Apećka", "name:uk": "Апецька", "natural": "peak", "wikidata": "Q4067993", "wikipedia": "uk:Апецька"}, "geometry": {"type": "Point", "coordinates": [23.995293, 48.1801697]}, "id": "node/1762208365"}, {"type": "Feature", "properties": {"@id": "node/1762222951", "ele": "1492", "name": "Климова", "name:en": "Klymova", "name:pl": "Klimowa", "name:uk": "Климова", "natural": "peak", "source": "wikipedia", "wikidata": "Q31521508", "wikipedia": "pl:Klimowa"}, "geometry": {"type": "Point", "coordinates": [23.8616192, 48.3261242]}, "id": "node/1762222951"}, {"type": "Feature", "properties": {"@id": "node/1762222956", "ele": "1481", "name": "Опреша", "name:en": "Opresha", "name:uk": "Опреша", "natural": "peak", "source": "wikipedia"}, "geometry": {"type": "Point", "coordinates": [24.0912249, 48.1780753]}, "id": "node/1762222956"}, {"type": "Feature", "properties": {"@id": "node/1762229837", "ele": "1548", "name": "Топас", "name:cs": "Topas", "name:en": "Topas", "name:hu": "Topasz", "name:pl": "Topas", "name:uk": "Топас", "natural": "peak", "source": "wikipedia, SRTM", "wikidata": "Q31519797", "wikipedia": "pl:Topas (szczyt)"}, "geometry": {"type": "Point", "coordinates": [23.7449259, 48.3791718]}, "id": "node/1762229837"}, {"type": "Feature", "properties": {"@id": "node/1762233913", "ele": "1502", "name": "Дарвайка", "name:en": "Darvaika", "name:uk": "Дарвайка", "natural": "peak", "source": "wikipedia", "wikidata": "Q4155024", "wikipedia": "uk:Дарвайка"}, "geometry": {"type": "Point", "coordinates": [23.7547481, 48.4658571]}, "id": "node/1762233913"}, {"type": "Feature", "properties": {"@id": "node/1762233915", "ele": "1600", "name": "Ясновець", "name:en": "Yasnovets", "name:pl": "Jasnowiec", "name:uk": "Ясновець", "natural": "peak", "source": "wikipedia", "wikidata": "Q4539366", "wikipedia": "uk:Ясновець"}, "geometry": {"type": "Point", "coordinates": [23.7640265, 48.4865771]}, "id": "node/1762233915"}, {"type": "Feature", "properties": {"@id": "node/1762243357", "ele": "1709", "name": "Негровець", "name:en": "Nehrovets", "name:pl": "Negrowiec", "name:uk": "Негровець", "natural": "peak", "prominence": "517", "source": "wikipedia", "wikidata": "Q4316000", "wikipedia": "uk:Негровець (гора)", "wikipedia:pl": "Negrowiec"}, "geometry": {"type": "Point", "coordinates": [23.7151667, 48.4982875]}, "id": "node/1762243357"}, {"type": "Feature", "properties": {"@id": "node/1762243358", "ele": "1630", "name": "Странжул", "name:en": "Stranzhul", "name:uk": "Странжул", "natural": "peak", "source": "wikipedia", "wikidata": "Q18434628", "wikipedia": "uk:Странзул"}, "geometry": {"type": "Point", "coordinates": [23.9107884, 48.4407586]}, "id": "node/1762243358"}, {"type": "Feature", "properties": {"@id": "node/1762243359", "ele": "1546", "name": "Прибуй", "name:en": "Prybui", "name:uk": "Прибуй", "natural": "peak", "source": "wikipedia", "wikidata": "Q18425335", "wikipedia": "uk:Прибуй"}, "geometry": {"type": "Point", "coordinates": [23.8630665, 48.3977567]}, "id": "node/1762243359"}, {"type": "Feature", "properties": {"@id": "node/1762243360", "ele": "1666", "name": "Берть", "name:en": "Bert", "name:uk": "Берть", "natural": "peak", "source": "wikipedia", "wikidata": "Q4085241", "wikipedia": "uk:Берть"}, "geometry": {"type": "Point", "coordinates": [23.9891818, 48.4600176]}, "id": "node/1762243360"}, {"type": "Feature", "properties": {"@id": "node/1762254087", "ele": "1740", "name": "Попадя", "name:en": "Popadia", "name:pl": "Popadia", "name:uk": "Попадя", "natural": "peak", "source": "wikipedia", "wikidata": "Q4372181", "wikipedia": "uk:Попадя"}, "geometry": {"type": "Point", "coordinates": [23.9069221, 48.5630968]}, "id": "node/1762254087"}, {"type": "Feature", "properties": {"@id": "node/1762257874", "ele": "1694", "name": "Лопушна", "name:en": "Lopushna", "name:pl": "Łopuszna", "name:uk": "Лопушна", "natural": "peak", "source": "wikipedia", "wikidata": "Q4266905", "wikipedia": "uk:Лопушна (гора)", "wikipedia:ru": "Лопушна"}, "geometry": {"type": "Point", "coordinates": [24.1036872, 48.5628748]}, "id": "node/1762257874"}, {"type": "Feature", "properties": {"@id": "node/1762262611", "ele": "1604", "name": "Неґрова", "name:en": "Negrova", "name:uk": "Неґрова", "natural": "peak", "source": "wikipedia", "wikidata": "Q4315999", "wikipedia": "uk:Негрова", "wikipedia:ru": "Негрова (гора)"}, "geometry": {"type": "Point", "coordinates": [24.1505154, 48.5324749]}, "id": "node/1762262611"}, {"type": "Feature", "properties": {"@id": "node/1762276749", "ele": "1160", "name": "Рахівська", "name:en": "Rakhivska", "name:uk": "Рахівська", "natural": "peak", "source": "wikipedia"}, "geometry": {"type": "Point", "coordinates": [24.144164, 48.0304978]}, "id": "node/1762276749"}, {"type": "Feature", "properties": {"@id": "node/1762280794", "ele": "1406", "name": "Курпень", "name:en": "Kurpen", "name:uk": "Курпень", "natural": "peak", "source": "wikipedia", "wikidata": "Q31525378"}, "geometry": {"type": "Point", "coordinates": [24.0964895, 48.2230853]}, "id": "node/1762280794"}, {"type": "Feature", "properties": {"@id": "node/1762282027", "ele": "1634", "name": "Темпа", "name:en": "Tempa", "name:pl": "Tempa", "name:uk": "Темпа", "natural": "peak", "source": "wikipedia", "wikidata": "Q4454518", "wikipedia": "uk:Темпа"}, "geometry": {"type": "Point", "coordinates": [24.042247, 48.2729493]}, "id": "node/1762282027"}, {"type": "Feature", "properties": {"@id": "node/1762286031", "ele": "1317", "name": "Мерша", "name:en": "Mersha", "name:uk": "Мерша", "natural": "peak", "source": "wikipedia", "wikidata": "Q31520907"}, "geometry": {"type": "Point", "coordinates": [23.5639125, 48.4958022]}, "id": "node/1762286031"}, {"type": "Feature", "properties": {"@id": "node/1762293412", "ele": "1680", "name": "Яйко-Ілемське", "name:en": "Yaiko-Ilemske", "name:uk": "Яйко-Ілемське", "natural": "peak", "source": "wikipedia", "wikidata": "Q4536576", "wikipedia": "uk:Яйко-Ілемське"}, "geometry": {"type": "Point", "coordinates": [23.8416198, 48.7041605]}, "id": "node/1762293412"}, {"type": "Feature", "properties": {"@id": "node/1762293416", "ele": "1587", "name": "Горган-Ілемський", "name:en": "Horhan-Ilemskyi", "name:ru": "Горган Илемский", "name:uk": "Горган-Ілемський", "natural": "peak", "source": "wikipedia", "wikidata": "Q4143777", "wikipedia": "uk:Ґорґан Ілемський", "wikipedia:ru": "Горган Илемский"}, "geometry": {"type": "Point", "coordinates": [23.858521, 48.7405046]}, "id": "node/1762293416"}, {"type": "Feature", "properties": {"@id": "node/1762874048", "alt_name": "Короткан", "ele": "1675", "name": "Боярин", "name:en": "Boiaryn", "name:uk": "Боярин", "natural": "peak", "wikidata": "Q4095473", "wikipedia": "uk:Боярин (гора)"}, "geometry": {"type": "Point", "coordinates": [24.1772909, 48.5287699]}, "id": "node/1762874048"}, {"type": "Feature", "properties": {"@id": "node/1762874049", "ele": "1818", "name": "Сивуля Мала", "name:en": "Syvulia Mala", "name:pl": "Mała Sywula", "name:uk": "Сивуля Мала", "natural": "peak", "prominence": "758", "wikidata": "Q4277335", "wikipedia": "uk:Мала Сивуля"}, "geometry": {"type": "Point", "coordinates": [24.1293419, 48.5451761]}, "id": "node/1762874049"}, {"type": "Feature", "properties": {"@id": "node/1762874469", "ele": "1450", "name": "Тавпиш", "name:en": "Tavpysh", "name:uk": "Тавпиш", "natural": "peak", "source": "wikipedia", "wikidata": "Q106497990"}, "geometry": {"type": "Point", "coordinates": [24.1165643, 48.4957331]}, "id": "node/1762874469"}, {"type": "Feature", "properties": {"@id": "node/1762915791", "ele": "1555", "name": "Берляска", "name:en": "Berliaska", "name:uk": "Берляска", "natural": "peak", "source": "wikipedia", "wikidata": "Q4085021", "wikipedia": "uk:Берляска"}, "geometry": {"type": "Point", "coordinates": [24.0719718, 48.3460139]}, "id": "node/1762915791"}, {"type": "Feature", "properties": {"@id": "node/1762915792", "ele": "1629", "name": "Підпула", "name:en": "Pidpula", "name:uk": "Підпула", "natural": "peak", "source": "wikipedia", "wikidata": "Q4362473", "wikipedia": "uk:Підпула"}, "geometry": {"type": "Point", "coordinates": [24.0906812, 48.3054348]}, "id": "node/1762915792"}, {"type": "Feature", "properties": {"@id": "node/1762948366", "alt_name": "Маґура (Жиде)", "ele": "1517", "loc_name": "Магура-Жиде", "name": "Жид-Магура", "name:en": "Zhyd-Mahura", "name:hu": "Zsidó Magura", "name:uk": "Жид-Магура", "natural": "peak", "source": "wikipedia", "wikidata": "Q4274208", "wikipedia": "uk:Жид-Магура"}, "geometry": {"type": "Point", "coordinates": [23.2877413, 48.6193557]}, "id": "node/1762948366"}, {"type": "Feature", "properties": {"@id": "node/1762950882", "ele": "1374", "name": "Граб", "name:en": "Hrab", "name:hu": "Gyertyánhavas", "name:ru": "Граб", "name:uk": "Граб", "natural": "peak", "source": "wikipedia", "wikidata": "Q4147186", "wikipedia": "uk:Граб (гора)"}, "geometry": {"type": "Point", "coordinates": [23.3052513, 48.6022707]}, "id": "node/1762950882"}, {"type": "Feature", "properties": {"@id": "node/1762956447", "ele": "1596", "name": "Яйко-Перегінське", "name:en": "Yaiko-Perehinske", "name:uk": "Яйко-Перегінське", "natural": "peak", "source": "wikipedia", "wikidata": "Q4536578", "wikipedia": "uk:Яйко-Перегінське", "wikipedia:ru": "Яйко-Перегинское"}, "geometry": {"type": "Point", "coordinates": [23.9002151, 48.6680984]}, "id": "node/1762956447"}, {"type": "Feature", "properties": {"@id": "node/1762959022", "ele": "1551", "name": "Гавор", "name:en": "Havor", "name:uk": "Гавор", "natural": "peak", "source": "wikipedia", "wikipedia": "uk:Гавор (гора)"}, "geometry": {"type": "Point", "coordinates": [24.2011553, 48.5197953]}, "id": "node/1762959022"}, {"type": "Feature", "properties": {"@id": "node/1762967609", "ele": "1405", "mapillary": "278831577037123", "name": "Гостра Гора", "name:en": "Hostra Hora", "name:pl": "Ostra Góra", "name:uk": "Гостра Гора", "natural": "peak", "prominence": "430", "source": "wikipedia;gps", "wikidata": "Q114253", "wikipedia": "uk:Гостра Гора"}, "geometry": {"type": "Point", "coordinates": [22.8747161, 48.838802]}, "id": "node/1762967609"}, {"type": "Feature", "properties": {"@id": "node/1762970254", "ele": "1361", "name": "Кук", "name:en": "Kuk", "name:uk": "Кук", "natural": "peak", "source": "wikipedia", "wikidata": "Q44933", "wikipedia": "uk:Кук (гора)"}, "geometry": {"type": "Point", "coordinates": [23.4057829, 48.4879383]}, "id": "node/1762970254"}, {"type": "Feature", "properties": {"@id": "node/1762984852", "ele": "1642", "name": "Великий Канусяк", "name:en": "Velykyi Kanusiak", "name:uk": "Великий Канусяк", "natural": "peak", "source": "wikipedia", "wikidata": "Q16614868", "wikipedia": "uk:Великий Канусяк"}, "geometry": {"type": "Point", "coordinates": [23.9644609, 48.6033335]}, "id": "node/1762984852"}, {"type": "Feature", "properties": {"@id": "node/1762984866", "ele": "1562", "name": "Верх-Слобушниця", "name:en": "Verkh-Slobushnytsia", "name:uk": "Верх-Слобушниця", "natural": "peak", "source": "wikipedia", "wikidata": "Q16614956"}, "geometry": {"type": "Point", "coordinates": [23.9006696, 48.7199037]}, "id": "node/1762984866"}, {"type": "Feature", "properties": {"@id": "node/1762984867", "ele": "1620", "name": "Малий Канусяк", "name:en": "Malyi Kanusiak", "name:uk": "Малий Канусяк", "natural": "peak", "source": "wikipedia", "wikidata": "Q16575817", "wikipedia": "uk:Малий Канусяк"}, "geometry": {"type": "Point", "coordinates": [23.9812647, 48.6150365]}, "id": "node/1762984867"}, {"type": "Feature", "properties": {"@id": "node/1762984869", "ele": "1553", "name": "Нередів", "name:en": "Nerediv", "name:uk": "Нередів", "natural": "peak", "source": "wikipedia", "wikipedia": "uk:Нередів (гора)"}, "geometry": {"type": "Point", "coordinates": [23.9609142, 48.6898206]}, "id": "node/1762984869"}, {"type": "Feature", "properties": {"@id": "node/1762984873", "ele": "1553", "name": "Кінь Ґрофецький", "name:en": "Kin Grofetskyi", "name:uk": "Кінь Ґрофецький", "natural": "peak", "source": "wikipedia", "wikidata": "Q25436127", "wikipedia": "uk:Кінь-Грофецький"}, "geometry": {"type": "Point", "coordinates": [23.9504428, 48.6343314]}, "id": "node/1762984873"}, {"type": "Feature", "properties": {"@id": "node/1778051231", "ele": "1407", "name": "Версалем", "name:en": "Versalem", "name:uk": "Версалем", "natural": "peak", "source": "wikipedia", "wikidata": "Q16694262", "wikipedia": "uk:Версалем"}, "geometry": {"type": "Point", "coordinates": [24.7251928, 48.2570307]}, "id": "node/1778051231"}, {"type": "Feature", "properties": {"@id": "node/1778053335", "ele": "1383", "name": "Кітилувка", "name:en": "Kityluvka", "name:uk": "Кітилувка", "natural": "peak", "source": "wikipedia", "wikipedia": "uk:Кітилувка (гора)"}, "geometry": {"type": "Point", "coordinates": [24.6684885, 48.246973]}, "id": "node/1778053335"}, {"type": "Feature", "properties": {"@id": "node/1778071249", "ele": "1276", "name": "Ребровач", "name:en": "Rebrovach", "name:pl": "Rebrowacz", "name:uk": "Ребровач", "natural": "peak", "source": "wikipedia", "wikipedia": "uk:Ребровач (гора)"}, "geometry": {"type": "Point", "coordinates": [24.6012834, 48.2998727]}, "id": "node/1778071249"}, {"type": "Feature", "properties": {"@id": "node/1778071250", "ele": "1280", "name": "Діл", "name:en": "Dil", "name:pl": "Dił", "name:uk": "Діл", "natural": "peak", "source": "wikipedia", "wikipedia": "uk:Діл (гора)"}, "geometry": {"type": "Point", "coordinates": [24.619958, 48.2898554]}, "id": "node/1778071250"}, {"type": "Feature", "properties": {"@id": "node/1778078810", "ele": "1277", "name": "Ріжа", "name:en": "Rizha", "name:pl": "Riża", "name:uk": "Рижа", "natural": "peak", "source": "wikipedia", "wikipedia": "uk:Рижа (гора)"}, "geometry": {"type": "Point", "coordinates": [24.6462117, 48.2676832]}, "id": "node/1778078810"}, {"type": "Feature", "properties": {"@id": "node/1778078811", "ele": "1325", "name": "Ворохтянська", "name:en": "Vorokhtianska", "name:pl": "Worochteński", "name:uk": "Ворохтянська", "natural": "peak", "source": "wikipedia", "wikipedia": "uk:Ворохтянська (гора)"}, "geometry": {"type": "Point", "coordinates": [24.6314593, 48.2780554]}, "id": "node/1778078811"}, {"type": "Feature", "properties": {"@id": "node/1778099961", "ele": "1387", "name": "Чорний Грунь", "name:en": "Chornyi Hrun", "name:uk": "Чорний Грунь", "natural": "peak", "source": "wikipedia", "wikipedia": "uk:Чорний Грунь (гора)"}, "geometry": {"type": "Point", "coordinates": [24.8551037, 48.2189655]}, "id": "node/1778099961"}, {"type": "Feature", "properties": {"@id": "node/1778119634", "ele": "1320", "name": "Погар", "name:en": "Pohar", "name:uk": "Погар", "natural": "peak", "source": "wikipedia", "wikipedia": "uk:Погар (гора)"}, "geometry": {"type": "Point", "coordinates": [24.7758623, 48.1823744]}, "id": "node/1778119634"}, {"type": "Feature", "properties": {"@id": "node/1778855153", "ele": "1452", "name": "Мала Маришевська", "name:en": "Mala Maryshevska", "name:pl": "Maryszewska Mała", "name:uk": "Мала Маришевська", "natural": "peak", "source": "wikipedia", "wikipedia": "uk:Мала Маришевська (гора)"}, "geometry": {"type": "Point", "coordinates": [24.5631935, 48.1531353]}, "id": "node/1778855153"}, {"type": "Feature", "properties": {"@id": "node/1778855154", "ele": "1567", "name": "Велика Маришевська", "name:en": "Velyka Maryshevska", "name:pl": "Maryszewska Wielka", "name:uk": "Велика Маришевська", "natural": "peak", "source": "wikipedia"}, "geometry": {"type": "Point", "coordinates": [24.5821537, 48.1434676]}, "id": "node/1778855154"}, {"type": "Feature", "properties": {"@id": "node/1778863381", "ele": "1238", "name": "Грибкова", "name:en": "Hrybkova", "name:uk": "Грибкова", "natural": "peak", "source": "wikipedia", "wikipedia": "uk:Грибкова (гора)"}, "geometry": {"type": "Point", "coordinates": [24.8110493, 48.186838]}, "id": "node/1778863381"}, {"type": "Feature", "properties": {"@id": "node/1779099523", "ele": "1222", "name": "Травен", "name:en": "Traven", "name:uk": "Травен", "natural": "peak", "source": "wikipedia"}, "geometry": {"type": "Point", "coordinates": [25.2156841, 48.0573175]}, "id": "node/1779099523"}, {"type": "Feature", "properties": {"@id": "node/1779099524", "ele": "1366", "name": "Осередок", "name:en": "Oseredok", "name:uk": "Осередок", "natural": "peak", "source": "wikipedia"}, "geometry": {"type": "Point", "coordinates": [25.1944238, 48.0108427]}, "id": "node/1779099524"}, {"type": "Feature", "properties": {"@id": "node/1779219594", "ele": "941", "name": "Лельків", "name:en": "Lelkiv", "name:uk": "Лельків", "natural": "peak", "source": "wikipedia", "wikipedia": "uk:Лельків (гора)"}, "geometry": {"type": "Point", "coordinates": [24.9635777, 48.1213895]}, "id": "node/1779219594"}, {"type": "Feature", "properties": {"@id": "node/1779219595", "ele": "1186", "name": "Синиці", "name:en": "Synytsi", "name:uk": "Синиці", "natural": "peak", "source": "wikipedia", "wikipedia": "uk:Синиці (гора)"}, "geometry": {"type": "Point", "coordinates": [24.9041175, 48.1453236]}, "id": "node/1779219595"}, {"type": "Feature", "properties": {"@id": "node/1779219598", "ele": "1341", "name": "Ріжа Кежковата", "name:en": "Rizha Kezhkovata", "name:uk": "Ріжа Кежковата", "natural": "peak", "source": "wikipedia", "wikipedia": "uk:Ружа Важковата (гора)"}, "geometry": {"type": "Point", "coordinates": [24.6492186, 48.1459066]}, "id": "node/1779219598"}, {"type": "Feature", "properties": {"@id": "node/1779219602", "ele": "1017", "name": "Фринців", "name:en": "Fryntsiv", "name:uk": "Фринців", "natural": "peak", "source": "wikipedia", "wikipedia": "uk:Фринців (гора)"}, "geometry": {"type": "Point", "coordinates": [25.0192003, 48.1325039]}, "id": "node/1779219602"}, {"type": "Feature", "properties": {"@id": "node/1779229815", "ele": "1148", "name": "Косарище", "name:en": "Kosaryshche", "name:uk": "Косарище", "natural": "peak", "source": "wikipedia", "wikipedia": "uk:Косарище (гора)"}, "geometry": {"type": "Point", "coordinates": [24.6752911, 48.1147955]}, "id": "node/1779229815"}, {"type": "Feature", "properties": {"@id": "node/1784405238", "ele": "1374", "name": "Явірник", "name:en": "Yavirnyk", "name:uk": "Явірник", "natural": "peak", "source": "wikipedia", "wikipedia": "uk:Явірник (гора)"}, "geometry": {"type": "Point", "coordinates": [24.693449, 48.0079531]}, "id": "node/1784405238"}, {"type": "Feature", "properties": {"@id": "node/1784405241", "ele": "1322", "name": "Лудовець", "name:en": "Ludovets", "name:uk": "Лудовець", "natural": "peak", "source": "wikipedia", "wikipedia": "uk:Лудовець (гора)"}, "geometry": {"type": "Point", "coordinates": [24.7505253, 48.0055427]}, "id": "node/1784405241"}, {"type": "Feature", "properties": {"@id": "node/1784411733", "ele": "1441", "name": "Олань", "name:en": "Olan", "name:uk": "Олань", "natural": "peak", "source": "wikipedia"}, "geometry": {"type": "Point", "coordinates": [24.4892191, 48.0157046]}, "id": "node/1784411733"}, {"type": "Feature", "properties": {"@id": "node/1784411754", "ele": "1338", "name": "Перехрест", "name:en": "Perekhrest", "name:uk": "Перехрест", "natural": "peak", "source": "wikipedia", "wikidata": "Q31520668"}, "geometry": {"type": "Point", "coordinates": [24.4479732, 48.0239143]}, "id": "node/1784411754"}, {"type": "Feature", "properties": {"@id": "node/1784412620", "ele": "1024", "name": "Магурка", "name:en": "Mahurka", "name:uk": "Магурка", "natural": "peak", "source": "wikipedia", "wikipedia": "uk:Магурка (гора)"}, "geometry": {"type": "Point", "coordinates": [24.8061876, 48.136966]}, "id": "node/1784412620"}, {"type": "Feature", "properties": {"@id": "node/1784412621", "ele": "1213", "name": "Медвежик", "name:en": "Medvezhyk", "name:uk": "Медвежик", "natural": "peak", "source": "wikipedia"}, "geometry": {"type": "Point", "coordinates": [24.8428416, 48.1870309]}, "id": "node/1784412621"}, {"type": "Feature", "properties": {"@id": "node/1784416755", "ele": "1232", "name": "Бубенка", "name:en": "Bubenka", "name:uk": "Бубенка", "natural": "peak", "source": "wikipedia", "wikipedia": "uk:Бубенка (гора)"}, "geometry": {"type": "Point", "coordinates": [24.7574346, 48.2141055]}, "id": "node/1784416755"}, {"type": "Feature", "properties": {"@id": "node/1784416761", "ele": "1368", "name": "Віпчинка", "name:en": "Vipchynka", "name:uk": "Віпчинка", "natural": "peak", "source": "wikipedia", "wikipedia": "uk:Віпчинка (гора)"}, "geometry": {"type": "Point", "coordinates": [24.7771768, 48.2017924]}, "id": "node/1784416761"}, {"type": "Feature", "properties": {"@id": "node/1784416766", "ele": "1375", "natural": "peak"}, "geometry": {"type": "Point", "coordinates": [24.7876481, 48.195701]}, "id": "node/1784416766"}, {"type": "Feature", "properties": {"@id": "node/1784416767", "ele": "1413", "name": "Пожеретул", "name:en": "Pozheretul", "name:uk": "Пожеретул", "natural": "peak", "source": "wikipedia", "wikipedia": "uk:Пожеретул (гора)"}, "geometry": {"type": "Point", "coordinates": [24.7388148, 48.290158]}, "id": "node/1784416767"}, {"type": "Feature", "properties": {"@id": "node/1784425449", "ele": "1247", "name": "Шавш", "name:en": "Shavsh", "name:uk": "Шавш", "natural": "peak", "source": "wikipedia", "wikipedia": "uk:Шавш (гора)"}, "geometry": {"type": "Point", "coordinates": [24.6407253, 48.3215684]}, "id": "node/1784425449"}, {"type": "Feature", "properties": {"@id": "node/1784425450", "ele": "1266", "name": "Чорний Погар", "name:en": "Chornyi Pohar", "name:uk": "Чорний Погар", "natural": "peak", "source": "wikipedia", "wikipedia": "uk:Чорний Погар (гора)"}, "geometry": {"type": "Point", "coordinates": [24.6430181, 48.329495]}, "id": "node/1784425450"}, {"type": "Feature", "properties": {"@id": "node/1784425451", "ele": "1283", "name": "Малий Діл", "name:en": "Malyi Dil", "name:uk": "Малий Діл", "natural": "peak", "source": "wikipedia", "wikipedia": "uk:Малий Діл (гора)"}, "geometry": {"type": "Point", "coordinates": [24.6945605, 48.22749]}, "id": "node/1784425451"}, {"type": "Feature", "properties": {"@id": "node/1784425452", "alt_name": "Діл", "ele": "1336", "name": "Копець", "name:en": "Kopets", "name:uk": "Копець", "natural": "peak"}, "geometry": {"type": "Point", "coordinates": [24.6853326, 48.234193]}, "id": "node/1784425452"}, {"type": "Feature", "properties": {"@id": "node/1784425453", "ele": "1248", "name": "Діл Малий", "name:en": "Dil Malyi", "name:uk": "Діл Малий", "natural": "peak", "source": "wikipedia", "wikipedia": "uk:Діл Малий (гора)"}, "geometry": {"type": "Point", "coordinates": [24.703915, 48.2190134]}, "id": "node/1784425453"}, {"type": "Feature", "properties": {"@id": "node/1784425454", "ele": "1426", "name": "Клині", "name:en": "Klyni", "name:uk": "Клині", "natural": "peak", "source": "wikipedia", "wikipedia": "uk:Клині (гора)"}, "geometry": {"type": "Point", "coordinates": [24.679539, 48.2671128]}, "id": "node/1784425454"}, {"type": "Feature", "properties": {"@id": "node/1784425455", "ele": "1257", "man_made": "survey_point", "name": "Ліснів", "name:en": "Lisniv", "name:uk": "Ліснів", "natural": "peak", "source": "wikipedia", "wikidata": "Q114230", "wikipedia": "uk:Ліснів", "wikipedia:ru": "Лиснив"}, "geometry": {"type": "Point", "coordinates": [24.6124631, 48.3524375]}, "id": "node/1784425455"}, {"type": "Feature", "properties": {"@id": "node/1784425456", "ele": "1261", "name": "Куніклива", "name:en": "Kuniklyva", "name:uk": "Куніклива", "natural": "peak", "source": "wikipedia", "wikipedia": "uk:Куніклива (гора)"}, "geometry": {"type": "Point", "coordinates": [24.6166659, 48.3460979]}, "id": "node/1784425456"}, {"type": "Feature", "properties": {"@id": "node/1784425457", "ele": "1252", "natural": "peak"}, "geometry": {"type": "Point", "coordinates": [24.6316026, 48.3358558]}, "id": "node/1784425457"}, {"type": "Feature", "properties": {"@id": "node/1784425458", "ele": "1259", "natural": "peak"}, "geometry": {"type": "Point", "coordinates": [24.6217321, 48.3418179]}, "id": "node/1784425458"}, {"type": "Feature", "properties": {"@id": "node/1784431283", "ele": "1337", "name": "Кобила", "name:en": "Kobyla", "name:pl": "Kobyła", "name:uk": "Кобила", "natural": "peak", "source": "wikipedia", "wikipedia": "uk:Кобила (гора)"}, "geometry": {"type": "Point", "coordinates": [24.66336, 48.2799677]}, "id": "node/1784431283"}, {"type": "Feature", "properties": {"@id": "node/1784431284", "ele": "1356", "name": "Гордя-Добротівська", "name:en": "Hordia-Dobrotivska", "name:uk": "Гордя-Добротівська", "natural": "peak", "source": "wikipedia", "wikipedia": "uk:Хорде-Доброкиївська (гора)"}, "geometry": {"type": "Point", "coordinates": [24.693272, 48.2891332]}, "id": "node/1784431284"}, {"type": "Feature", "properties": {"@id": "node/1784435481", "ele": "1290", "name": "Сиколка", "name:en": "Sykolka", "name:uk": "Сиколка", "natural": "peak", "source": "wikipedia", "wikipedia": "uk:Сиколка (гора)"}, "geometry": {"type": "Point", "coordinates": [24.6855021, 48.306039]}, "id": "node/1784435481"}, {"type": "Feature", "properties": {"@id": "node/1784435482", "ele": "1290", "name": "Шекелівка", "name:en": "Shekelivka", "name:uk": "Шекелівка", "natural": "peak", "source": "wikipedia", "wikipedia": "uk:Шекелівка (гора)"}, "geometry": {"type": "Point", "coordinates": [24.6959756, 48.3308645]}, "id": "node/1784435482"}, {"type": "Feature", "properties": {"@id": "node/1784464312", "ele": "1070", "name": "Щербанів Верх", "name:en": "Shcherbaniv Verkh", "name:uk": "Щербанів Верх", "natural": "peak"}, "geometry": {"type": "Point", "coordinates": [24.4841028, 48.3389378]}, "id": "node/1784464312"}, {"type": "Feature", "properties": {"@id": "node/1784464317", "ele": "1288", "name": "Магура", "name:en": "Mahura", "name:pl": "Magura", "name:uk": "Магура", "natural": "peak", "source": "wikipedia", "wikidata": "Q114210"}, "geometry": {"type": "Point", "coordinates": [24.5486904, 48.322304]}, "id": "node/1784464317"}, {"type": "Feature", "properties": {"@id": "node/1784475408", "ele": "1325", "name": "Гига", "name:en": "Hyha", "name:pl": "Dziurcz Welyki", "name:uk": "Гига", "natural": "peak"}, "geometry": {"type": "Point", "coordinates": [24.544828, 48.184058]}, "id": "node/1784475408"}, {"type": "Feature", "properties": {"@id": "node/1784475409", "ele": "1225", "name": "Кичера", "name:en": "Kychera", "name:pl": "Kiczera", "name:uk": "Кичера", "natural": "peak", "source": "wikipedia", "wikipedia": "uk:Кичера (гора)"}, "geometry": {"type": "Point", "coordinates": [24.5489479, 48.2449411]}, "id": "node/1784475409"}, {"type": "Feature", "properties": {"@id": "node/1784475410", "ele": "1228", "name": "Гостра Клива", "name:en": "Hostra Klyva", "name:pl": "Ostra Klewa", "name:uk": "Гостра Клива", "natural": "peak", "source": "wikipedia", "wikipedia": "uk:Гостра Клива (гора)"}, "geometry": {"type": "Point", "coordinates": [24.5649982, 48.230019]}, "id": "node/1784475410"}, {"type": "Feature", "properties": {"@id": "node/1784478382", "ele": "1460", "name": "Явірник", "name:en": "Yavirnyk", "name:uk": "Явірник", "natural": "peak"}, "geometry": {"type": "Point", "coordinates": [24.6478248, 48.1558961]}, "id": "node/1784478382"}, {"type": "Feature", "properties": {"@id": "node/1784478383", "ele": "1410", "natural": "peak"}, "geometry": {"type": "Point", "coordinates": [24.6189428, 48.1583581]}, "id": "node/1784478383"}, {"type": "Feature", "properties": {"@id": "node/1784478384", "ele": "1210", "name": "Конса", "name:en": "Konsa", "name:uk": "Конса", "natural": "peak", "source": "wikipedia", "wikipedia": "uk:Конса (гора)"}, "geometry": {"type": "Point", "coordinates": [24.5065046, 48.2057995]}, "id": "node/1784478384"}, {"type": "Feature", "properties": {"@id": "node/1784478385", "ele": "1341", "name": "Мариш", "name:en": "Marysh", "name:pl": "Marysz", "name:uk": "Мариш", "natural": "peak", "source": "wikipedia", "wikidata": "Q31522254", "wikipedia": "uk:Мариш (гора)"}, "geometry": {"type": "Point", "coordinates": [24.6008754, 48.1593587]}, "id": "node/1784478385"}, {"type": "Feature", "properties": {"@id": "node/1784483023", "ele": "1512", "name": "Костриця", "name:en": "Kostrytsia", "name:pl": "Kostrzyca", "name:uk": "Костриця", "natural": "peak", "source": "wikipedia", "wikidata": "Q97276248", "wikipedia": "uk:Костриця (гора)"}, "geometry": {"type": "Point", "coordinates": [24.6818953, 48.1573848]}, "id": "node/1784483023"}, {"type": "Feature", "properties": {"@id": "node/1784537880", "ele": "1337", "name": "Прислуп", "name:en": "Pryslup", "name:uk": "Прислуп", "natural": "peak", "source": "wikipedia", "wikidata": "Q18425524"}, "geometry": {"type": "Point", "coordinates": [23.8802363, 48.4133685]}, "id": "node/1784537880"}, {"type": "Feature", "properties": {"@id": "node/1784537885", "ele": "1478", "name": "Велика", "name:en": "Velyka", "name:uk": "Велика", "natural": "peak", "wikidata": "Q31525174"}, "geometry": {"type": "Point", "coordinates": [23.9496733, 48.4003776]}, "id": "node/1784537885"}, {"type": "Feature", "properties": {"@id": "node/1784537889", "ele": "1407", "natural": "peak"}, "geometry": {"type": "Point", "coordinates": [23.9452101, 48.3925672]}, "id": "node/1784537889"}, {"type": "Feature", "properties": {"@id": "node/1784537893", "ele": "1503", "name": "Цупцерин", "name:en": "Tsuptseryn", "name:uk": "Цупцерин", "natural": "peak", "source": "wikipedia", "wikidata": "Q31519779"}, "geometry": {"type": "Point", "coordinates": [23.9680411, 48.4150206]}, "id": "node/1784537893"}, {"type": "Feature", "properties": {"@id": "node/1784537898", "ele": "1597", "name": "Мала Попадя", "name:en": "Mala Popadia", "name:pl": "Mała Popadia", "name:uk": "Мала Попадя", "natural": "peak", "source": "wikipedia", "wikidata": "Q4277229", "wikipedia": "uk:Мала Попадя", "wikipedia:pl": "Mała Popadia", "wikipedia:ru": "Малая Попадья"}, "geometry": {"type": "Point", "coordinates": [23.8910553, 48.5751447]}, "id": "node/1784537898"}, {"type": "Feature", "properties": {"@id": "node/1784537903", "ele": "1600", "name": "Студенець", "name:en": "Studenets", "name:uk": "Студенець", "natural": "peak", "source": "wikipedia", "wikidata": "Q18434939", "wikipedia": "uk:Студенець (гора)"}, "geometry": {"type": "Point", "coordinates": [23.9620329, 48.5650244]}, "id": "node/1784537903"}, {"type": "Feature", "properties": {"@id": "node/1784541278", "ele": "1226", "name": "Мокра", "name:en": "Mokra", "name:uk": "Мокра", "natural": "peak"}, "geometry": {"type": "Point", "coordinates": [23.9227225, 48.3562494]}, "id": "node/1784541278"}, {"type": "Feature", "properties": {"@id": "node/1784541279", "ele": "1610", "name": "Овул", "name:en": "Ovul", "name:uk": "Овул", "natural": "peak", "source": "wikipedia", "wikidata": "Q18433008"}, "geometry": {"type": "Point", "coordinates": [24.002545, 48.5392874]}, "id": "node/1784541279"}, {"type": "Feature", "properties": {"@id": "node/1784541280", "ele": "1562", "name": "Ялова Клива", "name:en": "Yalova Klyva", "name:uk": "Ялова Клива", "natural": "peak", "source": "wikipedia", "wikidata": "Q18425754"}, "geometry": {"type": "Point", "coordinates": [23.9980818, 48.5841596]}, "id": "node/1784541280"}, {"type": "Feature", "properties": {"@id": "node/1784541281", "ele": "1441", "name": "Ґорґан", "name:en": "Gorgan", "name:uk": "Ґорґан", "natural": "peak"}, "geometry": {"type": "Point", "coordinates": [24.0959245, 48.5084198]}, "id": "node/1784541281"}, {"type": "Feature", "properties": {"@id": "node/1784541282", "ele": "1244", "natural": "peak"}, "geometry": {"type": "Point", "coordinates": [23.9271857, 48.351347]}, "id": "node/1784541282"}, {"type": "Feature", "properties": {"@id": "node/1784550579", "ele": "1498", "name": "Побита", "name:en": "Pobyta", "name:uk": "Побита", "natural": "peak"}, "geometry": {"type": "Point", "coordinates": [24.0077836, 48.4308534]}, "id": "node/1784550579"}, {"type": "Feature", "properties": {"@id": "node/1784580477", "ele": "1443", "name": "Латундур", "name:en": "Latundur", "name:uk": "Латундур", "natural": "peak", "source": "wikipedia", "wikidata": "Q31521217"}, "geometry": {"type": "Point", "coordinates": [24.0638246, 48.3936552]}, "id": "node/1784580477"}, {"type": "Feature", "properties": {"@id": "node/1784580478", "ele": "1425", "name": "Свидова", "name:en": "Svydova", "name:uk": "Свидова", "natural": "peak", "source": "wikipedia", "wikidata": "Q4410688", "wikipedia": "uk:Свидова (гора)"}, "geometry": {"type": "Point", "coordinates": [24.0212568, 48.3584788]}, "id": "node/1784580478"}, {"type": "Feature", "properties": {"@id": "node/1784580479", "ele": "1061", "name": "Журавлева Клива", "name:en": "Zhuravleva Klyva", "name:uk": "Журавлева Клива", "natural": "peak", "source": "wikipedia"}, "geometry": {"type": "Point", "coordinates": [24.1750654, 48.6047059]}, "id": "node/1784580479"}, {"type": "Feature", "properties": {"@id": "node/1784583789", "ele": "1440", "natural": "peak"}, "geometry": {"type": "Point", "coordinates": [24.1562685, 48.5594543]}, "id": "node/1784583789"}, {"type": "Feature", "properties": {"@id": "node/1784583790", "ele": "1244", "name": "Окопи", "name:en": "Okopy", "name:uk": "Окопи", "natural": "peak"}, "geometry": {"type": "Point", "coordinates": [24.177297, 48.5068242]}, "id": "node/1784583790"}, {"type": "Feature", "properties": {"@id": "node/1784583791", "ele": "1423", "name": "Гечура", "name:en": "Hechura", "name:uk": "Гечура", "natural": "peak", "source": "wikipedia"}, "geometry": {"type": "Point", "coordinates": [24.2161783, 48.5114273]}, "id": "node/1784583791"}, {"type": "Feature", "properties": {"@id": "node/1784583792", "ele": "1166", "name": "Полецька", "name:en": "Poletska", "name:uk": "Полецька", "natural": "peak", "source": "wikipedia"}, "geometry": {"type": "Point", "coordinates": [24.1790093, 48.6313144]}, "id": "node/1784583792"}, {"type": "Feature", "properties": {"@id": "node/1802683599", "ele": "1350", "natural": "peak"}, "geometry": {"type": "Point", "coordinates": [25.2109597, 48.0024979]}, "id": "node/1802683599"}, {"type": "Feature", "properties": {"@id": "node/1802683602", "ele": "1347", "name": "Чокелька", "name:en": "Chokelka", "name:uk": "Чукелька", "natural": "peak", "source": "wikipedia"}, "geometry": {"type": "Point", "coordinates": [25.1974414, 48.0434587]}, "id": "node/1802683602"}, {"type": "Feature", "properties": {"@id": "node/1802687890", "ele": "1280", "name": "Сена", "name:en": "Sena", "name:uk": "Сена", "natural": "peak"}, "geometry": {"type": "Point", "coordinates": [25.1216057, 48.0417056]}, "id": "node/1802687890"}, {"type": "Feature", "properties": {"@id": "node/1802687891", "ele": "1246", "natural": "peak"}, "geometry": {"type": "Point", "coordinates": [25.1595471, 48.0275022]}, "id": "node/1802687891"}, {"type": "Feature", "properties": {"@id": "node/1802687892", "ele": "1287", "name": "Ракова", "name:en": "Rakova", "name:uk": "Ракова", "natural": "peak", "source": "wikipedia"}, "geometry": {"type": "Point", "coordinates": [25.0884364, 48.0641686]}, "id": "node/1802687892"}, {"type": "Feature", "properties": {"@id": "node/1802687893", "ele": "1275", "natural": "peak"}, "geometry": {"type": "Point", "coordinates": [25.1049545, 48.0514057]}, "id": "node/1802687893"}, {"type": "Feature", "properties": {"@id": "node/1802690077", "ele": "1240", "name": "Бочкова", "name:en": "Bochkova", "name:uk": "Бочкова", "natural": "peak", "source": "wikipedia"}, "geometry": {"type": "Point", "coordinates": [25.1337894, 48.1085737]}, "id": "node/1802690077"}, {"type": "Feature", "properties": {"@id": "node/1802694057", "ele": "1155", "natural": "peak"}, "geometry": {"type": "Point", "coordinates": [25.1620319, 48.0941866]}, "id": "node/1802694057"}, {"type": "Feature", "properties": {"@id": "node/1803849628", "ele": "1400", "name": "Синячка", "name:en": "Syniachka", "name:uk": "Синячка", "natural": "peak", "source": "wikipedia"}, "geometry": {"type": "Point", "coordinates": [24.4738386, 48.4807198]}, "id": "node/1803849628"}, {"type": "Feature", "properties": {"@id": "node/1803864408", "ele": "1616", "name": "Козій Ґорґан", "name:en": "Kozii Gorgan", "name:uk": "Козій Ґорґан", "natural": "peak", "source": "GPS", "wikidata": "Q4226564", "wikipedia": "uk:Кізійський Ґорґан", "wikipedia:ru": "Козий Горган"}, "geometry": {"type": "Point", "coordinates": [24.3437328, 48.459946]}, "id": "node/1803864408"}, {"type": "Feature", "properties": {"@id": "node/1803864415", "ele": "1400", "name": "Товста", "name:en": "Tovsta", "name:uk": "Товста", "natural": "peak", "source": "wikipedia", "wikidata": "Q133515", "wikipedia": "uk:Товста (гора)"}, "geometry": {"type": "Point", "coordinates": [24.4184676, 48.4478725]}, "id": "node/1803864415"}, {"type": "Feature", "properties": {"@id": "node/1803871751", "ele": "1271", "name": "Менчул", "name:en": "Menchul", "name:uk": "Менчіл", "natural": "peak"}, "geometry": {"type": "Point", "coordinates": [24.2817201, 48.5341669]}, "id": "node/1803871751"}, {"type": "Feature", "properties": {"@id": "node/1803871765", "ele": "1559", "name": "Катерина", "name:en": "Kateryna", "name:uk": "Катерина", "natural": "peak", "source": "wikipedia"}, "geometry": {"type": "Point", "coordinates": [24.2472561, 48.5562337]}, "id": "node/1803871765"}, {"type": "Feature", "properties": {"@id": "node/1803874899", "ele": "1499", "name": "Подини", "name:en": "Podyny", "name:uk": "Подини", "natural": "peak"}, "geometry": {"type": "Point", "coordinates": [24.1457256, 48.4774197]}, "id": "node/1803874899"}, {"type": "Feature", "properties": {"@id": "node/1803874900", "ele": "1447", "name": "Ур’я", "name:en": "Uria", "name:uk": "Ур’я", "natural": "peak", "source": "wikipedia", "wikidata": "Q4477485", "wikipedia": "uk:Ур'я"}, "geometry": {"type": "Point", "coordinates": [24.0872749, 48.4337]}, "id": "node/1803874900"}, {"type": "Feature", "properties": {"@id": "node/1803874901", "ele": "1439", "name": "Максимець", "name:en": "Maksymets", "name:uk": "Максимець", "natural": "peak"}, "geometry": {"type": "Point", "coordinates": [24.2509047, 48.4980249]}, "id": "node/1803874901"}, {"type": "Feature", "properties": {"@id": "node/1836222185", "ele": "1210", "man_made": "cross", "name": "Лопата", "name:en": "Lopata", "name:ru": "Лопата", "name:uk": "Лопата", "natural": "peak", "wikidata": "Q132083611"}, "geometry": {"type": "Point", "coordinates": [23.5380563, 48.9848067]}, "id": "node/1836222185"}, {"type": "Feature", "properties": {"@id": "node/1842690960", "ele": "1566", "name": "Близниця-Мала", "name:cs": "Malá Bliznica", "name:en": "Blyznytsia-Mala", "name:ru": "Близниця Мала 1566м", "name:uk": "Близниця Мала", "natural": "peak"}, "geometry": {"type": "Point", "coordinates": [24.2284868, 48.2021073]}, "id": "node/1842690960"}, {"type": "Feature", "properties": {"@id": "node/1842690970", "ele": "1872", "name": "Близниця", "name:cs": "Bliznica", "name:en": "Blyznytsia", "name:ru": "Близниця 1872м", "name:uk": "Близниця", "natural": "peak", "prominence": "1002"}, "geometry": {"type": "Point", "coordinates": [24.2377152, 48.2163025]}, "id": "node/1842690970"}, {"type": "Feature", "properties": {"@id": "node/1844001270", "ele": "1196", "name": "Берлан", "name:en": "Berlan", "name:uk": "Берлан", "natural": "peak", "source": "wikipedia"}, "geometry": {"type": "Point", "coordinates": [24.4635025, 48.2107565]}, "id": "node/1844001270"}, {"type": "Feature", "properties": {"@id": "node/1844001271", "ele": "1006", "name": "Яблуниця", "name:en": "Yablunytsia", "name:uk": "Яблуниця", "natural": "peak", "source": "wikipedia"}, "geometry": {"type": "Point", "coordinates": [24.4610156, 48.2966849]}, "id": "node/1844001271"}, {"type": "Feature", "properties": {"@id": "node/1844001273", "ele": "1237", "name": "Верх-Дебри", "name:en": "Verkh-Debry", "name:uk": "Верх-Дебри", "natural": "peak", "source": "wikipedia"}, "geometry": {"type": "Point", "coordinates": [24.4701544, 48.2491141]}, "id": "node/1844001273"}, {"type": "Feature", "properties": {"@id": "node/1844028679", "ele": "1496", "natural": "peak"}, "geometry": {"type": "Point", "coordinates": [24.6241368, 48.0258108]}, "id": "node/1844028679"}, {"type": "Feature", "properties": {"@id": "node/1844028702", "ele": "1396", "natural": "peak"}, "geometry": {"type": "Point", "coordinates": [24.6113459, 48.0122619]}, "id": "node/1844028702"}, {"type": "Feature", "properties": {"@id": "node/1845299609", "ele": "1229", "name": "Старостина", "name:en": "Starostyna", "name:pl": "Starostyna", "name:uk": "Старостина", "natural": "peak", "source": "wikipedia", "wikidata": "Q110388243"}, "geometry": {"type": "Point", "coordinates": [22.88692, 48.9233508]}, "id": "node/1845299609"}, {"type": "Feature", "properties": {"@id": "node/1845299610", "ele": "1186", "name": "Дрогобицький Камінь", "name:en": "Drohobytskyi Kamin", "name:pl": "Drohobycki Kamień", "name:ru": "Дрогобычский Камень", "name:uk": "Дрогобицький Камінь", "natural": "peak", "source": "wikipedia"}, "geometry": {"type": "Point", "coordinates": [22.8733588, 48.9407715]}, "id": "node/1845299610"}, {"type": "Feature", "properties": {"@id": "node/1845299614", "ele": "1030", "name": "Катерина", "name:en": "Kateryna", "name:pl": "Katarzyna", "name:uk": "Катерина", "natural": "peak", "source": "wikipedia"}, "geometry": {"type": "Point", "coordinates": [22.9486323, 48.9968379]}, "id": "node/1845299614"}, {"type": "Feature", "properties": {"@id": "node/1845299619", "ele": "1309", "name": "Великий Верх", "name:en": "Velykyi Verkh", "name:pl": "Wielki Wierch", "name:uk": "Великий Верх", "natural": "peak", "source": "wikipedia", "wikidata": "Q31519569"}, "geometry": {"type": "Point", "coordinates": [22.9421092, 48.8854916]}, "id": "node/1845299619"}, {"type": "Feature", "properties": {"@id": "node/1845300876", "alt_name": "Лютянська Голиця", "ele": "1375", "name": "Лютянська Голиця", "name:en": "Liutianska Holytsia", "name:uk": "Лютянська Голиця", "natural": "peak", "prominence": "485", "wikidata": "Q166138", "wikipedia": "uk:Лютянська Голиця"}, "geometry": {"type": "Point", "coordinates": [22.7617381, 48.8464768]}, "id": "node/1845300876"}, {"type": "Feature", "properties": {"@id": "node/1845300880", "ele": "1184", "name": "Мала Голиця", "name:en": "Mala Holytsia", "name:hu": "Bukóci Bérc", "name:uk": "Мала Голиця", "natural": "peak", "prominence": "294", "tourism": "viewpoint"}, "geometry": {"type": "Point", "coordinates": [22.7152286, 48.8398919]}, "id": "node/1845300880"}, {"type": "Feature", "properties": {"@id": "node/1845331133", "ele": "1062", "name": "Білий камінь", "name:en": "Bilyi kamin", "name:pl": "Biały Kamień", "name:uk": "Білий камінь", "natural": "peak"}, "geometry": {"type": "Point", "coordinates": [22.865849, 48.8020871]}, "id": "node/1845331133"}, {"type": "Feature", "properties": {"@id": "node/1845331157", "alt_name": "Бозьово", "alt_name:uk": "Бозьово", "ele": "1095", "name": "Бозьова", "name:en": "Bozova", "name:uk": "Бозьова", "natural": "peak"}, "geometry": {"type": "Point", "coordinates": [23.0859576, 48.7030319]}, "id": "node/1845331157"}, {"type": "Feature", "properties": {"@id": "node/1845331160", "ele": "1247", "name": "Менчул", "name:en": "Menchul", "name:uk": "Менчул", "natural": "peak"}, "geometry": {"type": "Point", "coordinates": [23.4414726, 48.5146163]}, "id": "node/1845331160"}, {"type": "Feature", "properties": {"@id": "node/1845358342", "ele": "1349", "name": "Плеша", "name:en": "Plesha", "name:ru": "Плеша", "name:uk": "Плеша", "natural": "peak", "wikidata": "Q16588631"}, "geometry": {"type": "Point", "coordinates": [23.7555294, 48.7430901]}, "id": "node/1845358342"}, {"type": "Feature", "properties": {"@id": "node/1845358346", "ele": "1451", "name": "Менчул", "name:en": "Menchul", "name:ru": "Менчул", "name:uk": "Менчул", "natural": "peak", "wikidata": "Q16576115"}, "geometry": {"type": "Point", "coordinates": [23.7306359, 48.7083517]}, "id": "node/1845358346"}, {"type": "Feature", "properties": {"@id": "node/1845358350", "ele": "1578", "name": "Канч", "name:en": "Kanch", "name:uk": "Канч", "natural": "peak", "source": "wikipedia", "wikidata": "Q16565256", "wikipedia": "uk:Канч (гора)"}, "geometry": {"type": "Point", "coordinates": [23.749347, 48.5776294]}, "id": "node/1845358350"}, {"type": "Feature", "properties": {"@id": "node/1845358351", "ele": "1365", "name": "Малий Горган", "name:en": "Malyi Horhan", "name:uk": "Малий Горган", "natural": "peak"}, "geometry": {"type": "Point", "coordinates": [23.7036851, 48.6352939]}, "id": "node/1845358351"}, {"type": "Feature", "properties": {"@id": "node/1845358363", "ele": "1370", "name": "Велике Городище", "name:en": "Velyke Horodyshche", "name:uk": "Велике Городище", "natural": "peak"}, "geometry": {"type": "Point", "coordinates": [23.6691811, 48.7620734]}, "id": "node/1845358363"}, {"type": "Feature", "properties": {"@id": "node/1845358372", "ele": "1496", "name": "Озерна", "name:en": "Ozerna", "name:ru": "Озерная", "name:uk": "Озерна", "natural": "peak", "prominence": "406", "wikidata": "Q16585043"}, "geometry": {"type": "Point", "coordinates": [23.663789, 48.6097264]}, "id": "node/1845358372"}, {"type": "Feature", "properties": {"@id": "node/1845358375", "ele": "1389", "name": "Секул", "name:en": "Sekul", "name:pl": "Sekul", "name:uk": "Секул", "natural": "peak"}, "geometry": {"type": "Point", "coordinates": [23.7198212, 48.6142431]}, "id": "node/1845358375"}, {"type": "Feature", "properties": {"@id": "node/1845358380", "ele": "1305", "name": "Велика Мегла", "name:en": "Velyka Mehla", "name:uk": "Велика Мегла", "natural": "peak"}, "geometry": {"type": "Point", "coordinates": [23.7642815, 48.6784941]}, "id": "node/1845358380"}, {"type": "Feature", "properties": {"@id": "node/1845399409", "ele": "1598", "name": "Передня", "name:en": "Perednia", "name:uk": "Передня", "natural": "peak", "source": "wikipedia", "wikidata": "Q4350262", "wikipedia": "uk:Передня (гора)"}, "geometry": {"type": "Point", "coordinates": [23.8480437, 48.5036485]}, "id": "node/1845399409"}, {"type": "Feature", "properties": {"@id": "node/1845399410", "ele": "1405", "name": "Явірник", "name:en": "Yavirnyk", "name:uk": "Явірник", "natural": "peak", "wikidata": "Q195191", "wikipedia": "uk:Явірник (хребет)"}, "geometry": {"type": "Point", "coordinates": [23.7680985, 48.5340876]}, "id": "node/1845399410"}, {"type": "Feature", "properties": {"@id": "node/1845399411", "ele": "1550", "name": "Задня", "name:en": "Zadnia", "name:uk": "Задня", "natural": "peak", "source": "wikipedia", "wikidata": "Q16618465"}, "geometry": {"type": "Point", "coordinates": [23.8576653, 48.5269538]}, "id": "node/1845399411"}, {"type": "Feature", "properties": {"@id": "node/1845399412", "ele": "1529", "name": "Дадина", "name:en": "Dadyna", "name:uk": "Дадина", "natural": "peak", "source": "wikipedia"}, "geometry": {"type": "Point", "coordinates": [23.7855675, 48.5213829]}, "id": "node/1845399412"}, {"type": "Feature", "properties": {"@id": "node/1845431201", "ele": "1291", "name": "Великий Менчіл", "name:en": "Velykyi Menchil", "name:uk": "Великий Менчіл", "natural": "peak"}, "geometry": {"type": "Point", "coordinates": [24.1542146, 48.1566991]}, "id": "node/1845431201"}, {"type": "Feature", "properties": {"@id": "node/1845431202", "ele": "1373", "name": "Ружа", "name:en": "Ruzha", "name:uk": "Ружа", "natural": "peak"}, "geometry": {"type": "Point", "coordinates": [23.8788655, 48.3113435]}, "id": "node/1845431202"}, {"type": "Feature", "properties": {"@id": "node/1845431203", "ele": "1385", "name": "Менчул", "name:en": "Menchul", "name:uk": "Менчул", "natural": "peak"}, "geometry": {"type": "Point", "coordinates": [24.262018, 48.0221948]}, "id": "node/1845431203"}, {"type": "Feature", "properties": {"@id": "node/1845431204", "ele": "1294", "name": "Угорська", "name:en": "Uhorska", "name:uk": "Угорська", "natural": "peak", "source": "wikipedia", "wikidata": "Q31519708"}, "geometry": {"type": "Point", "coordinates": [23.9115101, 48.2826795]}, "id": "node/1845431204"}, {"type": "Feature", "properties": {"@id": "node/1845431205", "ele": "1379", "name": "Мунчел-Малий", "name:en": "Munchel-Malyi", "name:uk": "Мунчел-Малий", "natural": "peak"}, "geometry": {"type": "Point", "coordinates": [24.1719816, 48.2044867]}, "id": "node/1845431205"}, {"type": "Feature", "properties": {"@id": "node/1845431206", "ele": "1392", "name": "Плеска Унгурська", "name:en": "Pleska Unhurska", "name:ru": "Плеска Унгурская", "name:uk": "Плеска Унгурська", "natural": "peak", "url": "http://krokomir.com/places/peak/pleska-ungurskaya-1391"}, "geometry": {"type": "Point", "coordinates": [24.1080377, 48.2439393]}, "id": "node/1845431206"}, {"type": "Feature", "properties": {"@id": "node/1845431207", "ele": "1242", "name": "Штевйора", "name:en": "Shteviora", "name:uk": "Штевйора", "natural": "peak"}, "geometry": {"type": "Point", "coordinates": [24.301262, 48.1004533]}, "id": "node/1845431207"}, {"type": "Feature", "properties": {"@id": "node/1845431208", "ele": "1436", "name": "Сеглин", "name:en": "Sehlyn", "name:uk": "Сеглин", "natural": "peak", "source": "wikipedia"}, "geometry": {"type": "Point", "coordinates": [24.3718813, 48.1013559]}, "id": "node/1845431208"}, {"type": "Feature", "properties": {"@id": "node/1845431209", "ele": "1386", "name": "Красний Грунь", "name:en": "Krasnyi Hrun", "name:uk": "Красний Грунь", "natural": "peak", "source": "wikipedia"}, "geometry": {"type": "Point", "coordinates": [23.9719918, 48.1983655]}, "id": "node/1845431209"}, {"type": "Feature", "properties": {"@id": "node/1845431210", "ele": "1422", "name": "Білинська", "name:en": "Bilynska", "name:uk": "Білинська", "natural": "peak"}, "geometry": {"type": "Point", "coordinates": [24.2132787, 48.1647242]}, "id": "node/1845431210"}, {"type": "Feature", "properties": {"@id": "node/1845431211", "ele": "1247", "name": "Середній Грунь", "name:en": "Serednii Hrun", "name:uk": "Середній Грунь", "natural": "peak"}, "geometry": {"type": "Point", "coordinates": [24.2371271, 48.1565245]}, "id": "node/1845431211"}, {"type": "Feature", "properties": {"@id": "node/1845431213", "ele": "1453", "natural": "peak"}, "geometry": {"type": "Point", "coordinates": [24.1756723, 48.2349644]}, "id": "node/1845431213"}, {"type": "Feature", "properties": {"@id": "node/1845431214", "ele": "1495", "name": "Гропа", "name:en": "Hropa", "name:pl": "Gropa", "name:uk": "Гропа", "natural": "peak", "wikidata": "Q106473000"}, "geometry": {"type": "Point", "coordinates": [23.8027337, 48.3384542]}, "id": "node/1845431214"}, {"type": "Feature", "properties": {"@id": "node/1845431217", "ele": "1214", "name": "Плешка", "name:en": "Pleshka", "name:uk": "Плешка", "natural": "peak"}, "geometry": {"type": "Point", "coordinates": [24.0966094, 48.1400918]}, "id": "node/1845431217"}, {"type": "Feature", "properties": {"@id": "node/1845450768", "ele": "1282", "natural": "peak"}, "geometry": {"type": "Point", "coordinates": [24.0654636, 48.172783]}, "id": "node/1845450768"}, {"type": "Feature", "properties": {"@id": "node/1845450777", "ele": "1177", "name": "Кобила", "name:en": "Kobyla", "name:uk": "Кобила", "natural": "peak", "wikidata": "Q15711661", "wikipedia": "uk:Кобила (гора)"}, "geometry": {"type": "Point", "coordinates": [24.0935195, 48.0376953]}, "id": "node/1845450777"}, {"type": "Feature", "properties": {"@id": "node/1845450784", "ele": "1188", "name": "Межиділля", "name:en": "Mezhydillia", "name:uk": "Межиділля", "natural": "peak"}, "geometry": {"type": "Point", "coordinates": [24.0178254, 48.142609]}, "id": "node/1845450784"}, {"type": "Feature", "properties": {"@id": "node/1850060347", "ele": "1241", "natural": "peak"}, "geometry": {"type": "Point", "coordinates": [24.8843971, 48.2098591]}, "id": "node/1850060347"}, {"type": "Feature", "properties": {"@id": "node/1850086434", "ele": "1650", "name": "Степанець", "name:en": "Stepanets", "name:pl": "Stepaniec", "name:uk": "Стефанець", "natural": "peak", "source": "wikipedia"}, "geometry": {"type": "Point", "coordinates": [24.6229337, 48.0966866]}, "id": "node/1850086434"}, {"type": "Feature", "properties": {"@id": "node/1850086439", "ele": "1825", "name": "Полонина Лемська", "name:en": "Polonyna Lemska", "name:uk": "Полонина Лемська", "natural": "peak", "source": "wikipedia"}, "geometry": {"type": "Point", "coordinates": [24.5726005, 48.0818375]}, "id": "node/1850086439"}, {"type": "Feature", "properties": {"@id": "node/1850141500", "ele": "1257", "natural": "peak"}, "geometry": {"type": "Point", "coordinates": [24.7867384, 48.0342408]}, "id": "node/1850141500"}, {"type": "Feature", "properties": {"@id": "node/1850141509", "ele": "1142", "natural": "peak"}, "geometry": {"type": "Point", "coordinates": [24.8333101, 48.0765018]}, "id": "node/1850141509"}, {"type": "Feature", "properties": {"@id": "node/1850141522", "ele": "1163", "name": "Гнилець Малий", "name:en": "Hnylets Malyi", "name:ru": "Малый Гнилец", "name:uk": "Гнилець Малий", "natural": "peak"}, "geometry": {"type": "Point", "coordinates": [24.7752048, 48.0554757]}, "id": "node/1850141522"}, {"type": "Feature", "properties": {"@id": "node/1850141536", "ele": "1207", "name": "Громовиця", "name:en": "Hromovytsia", "name:uk": "Громовиця", "natural": "peak"}, "geometry": {"type": "Point", "coordinates": [24.8505191, 48.0105697]}, "id": "node/1850141536"}, {"type": "Feature", "properties": {"@id": "node/1850141545", "ele": "1208", "name": "Кремениця", "name:en": "Kremenytsia", "name:uk": "Кремениця", "natural": "peak"}, "geometry": {"type": "Point", "coordinates": [24.8363571, 48.0633104]}, "id": "node/1850141545"}, {"type": "Feature", "properties": {"@id": "node/1850141559", "ele": "1195", "name": "Кругла", "name:en": "Kruhla", "name:ru": "Круглая", "name:uk": "Кругла", "natural": "peak"}, "geometry": {"type": "Point", "coordinates": [24.8671274, 48.0512057]}, "id": "node/1850141559"}, {"type": "Feature", "properties": {"@id": "node/1850141562", "ele": "1077", "name": "Дирачок", "name:en": "Dyrachok", "name:uk": "Дирачок", "natural": "peak"}, "geometry": {"type": "Point", "coordinates": [24.8945095, 48.0221931]}, "id": "node/1850141562"}, {"type": "Feature", "properties": {"@id": "node/1852003824", "ele": "565", "name": "Чорна Гора", "name:en": "Chorna Hora", "name:hu": "Feketehegy", "name:uk": "Чорна Гора", "natural": "peak"}, "geometry": {"type": "Point", "coordinates": [23.0695423, 48.153411]}, "id": "node/1852003824"}, {"type": "Feature", "properties": {"@id": "node/1900598540", "ele": "1408", "name": "Пікуй", "name:cs": "Pikuj", "name:en": "Pikui", "name:hu": "Pokol-bérc", "name:pl": "Pikuj", "name:ru": "Пикуй", "name:sk": "Pikuj", "name:uk": "Пікуй", "natural": "peak", "prominence": "613", "source": "wikipedia", "wikidata": "Q4362640", "wikipedia": "uk:Пікуй"}, "geometry": {"type": "Point", "coordinates": [23.0009905, 48.8297175]}, "id": "node/1900598540"}, {"type": "Feature", "properties": {"@id": "node/1906559860", "ele": "880", "name": "Вершище", "natural": "peak"}, "geometry": {"type": "Point", "coordinates": [23.3658888, 49.1878539]}, "id": "node/1906559860"}, {"type": "Feature", "properties": {"@id": "node/1923584143", "alt_name": "Параска", "alt_name:en": "Parashka", "alt_name:uk": "Параска", "ele": "1268.5", "name": "Парашка", "name:en": "Paraska", "name:pl": "Paraszka", "natural": "peak", "prominence": "479", "summit:cross": "no", "wikidata": "Q4345039", "wikipedia": "uk:Парашка"}, "geometry": {"type": "Point", "coordinates": [23.4156153, 49.069821]}, "id": "node/1923584143"}, {"type": "Feature", "properties": {"@id": "node/1932185732", "ele": "1104", "name": "Варітин", "name:en": "Varityn", "name:uk": "Варітин", "natural": "peak"}, "geometry": {"type": "Point", "coordinates": [24.921962, 48.1551534]}, "id": "node/1932185732"}, {"type": "Feature", "properties": {"@id": "node/1932196255", "ele": "1168", "name": "Синя Кичера", "name:en": "Synia Kychera", "name:uk": "Синя Кичера", "natural": "peak", "source": "wikipedia"}, "geometry": {"type": "Point", "coordinates": [24.9875409, 48.1516164]}, "id": "node/1932196255"}, {"type": "Feature", "properties": {"@id": "node/1932201761", "ele": "1121", "name": "Степанський", "name:en": "Stepanskyi", "name:uk": "Степанський", "natural": "peak", "source": "wikipedia"}, "geometry": {"type": "Point", "coordinates": [24.7013328, 48.1084455]}, "id": "node/1932201761"}, {"type": "Feature", "properties": {"@id": "node/1932202640", "ele": "886", "name": "Гуптин", "name:en": "Huptyn", "name:uk": "Гуптин", "natural": "peak", "source": "wikipedia"}, "geometry": {"type": "Point", "coordinates": [24.9652223, 48.1042267]}, "id": "node/1932202640"}, {"type": "Feature", "properties": {"@id": "node/2015090192", "ele": "1232", "name": "Тростян", "name:en": "Trostian", "name:ru": "Тростян", "name:uk": "Тростян", "natural": "peak", "wikidata": "Q73554", "wikipedia": "uk:Тростян"}, "geometry": {"type": "Point", "coordinates": [23.3909109, 48.8566001]}, "id": "node/2015090192"}, {"type": "Feature", "properties": {"@id": "node/2021364245", "ele": "978", "name": "Маковиця", "name:en": "Makovytsia", "name:hu": "Makovica", "name:uk": "Маковиця", "natural": "peak", "prominence": "443", "wikidata": "Q4275894", "wikipedia": "uk:Маковиця (гора)"}, "geometry": {"type": "Point", "coordinates": [22.59625, 48.6599]}, "id": "node/2021364245"}, {"type": "Feature", "properties": {"@id": "node/2021482638", "ele": "1222", "name": "Круглий Явірник", "name:en": "Kruhlyi Yavirnyk", "name:uk": "Круглий Явірник", "natural": "peak"}, "geometry": {"type": "Point", "coordinates": [24.5547647, 48.3910452]}, "id": "node/2021482638"}, {"type": "Feature", "properties": {"@id": "node/2021483137", "ele": "1467", "name": "Явірник-Ґорґан", "name:en": "Yavirnyk-Gorgan", "name:uk": "Явірник-Ґорґан", "natural": "peak", "wikidata": "Q20096214", "wikipedia": "uk:Явірник-Ґорґан"}, "geometry": {"type": "Point", "coordinates": [24.4984463, 48.4074762]}, "id": "node/2021483137"}, {"type": "Feature", "properties": {"@id": "node/2069545916", "ele": "929", "name": "Ключ", "name:en": "Kliuch", "name:uk": "Ключ", "natural": "peak"}, "geometry": {"type": "Point", "coordinates": [23.6037665, 49.0391113]}, "id": "node/2069545916"}, {"type": "Feature", "properties": {"@id": "node/2074925047", "ele": "1461", "name": "Барвінок", "name:en": "Barvinok", "name:ru": "Барвинок", "name:uk": "Барвінок", "natural": "peak", "tourism": "viewpoint"}, "geometry": {"type": "Point", "coordinates": [23.71503, 48.4774781]}, "id": "node/2074925047"}, {"type": "Feature", "properties": {"@id": "node/2078501103", "ele": "1363", "name": "Маґура", "name:en": "Magura", "name:uk": "Маґура", "natural": "peak", "wikidata": "Q4274211", "wikipedia": "uk:Маґура"}, "geometry": {"type": "Point", "coordinates": [23.6078057, 48.8823561]}, "id": "node/2078501103"}, {"type": "Feature", "properties": {"@id": "node/2079095985", "ele": "951", "name": "Багна", "name:en": "Bahna", "name:uk": "Багна", "natural": "peak"}, "geometry": {"type": "Point", "coordinates": [23.5552949, 48.8573616]}, "id": "node/2079095985"}, {"type": "Feature", "properties": {"@id": "node/2079095994", "ele": "1168", "name": "Грунь", "name:en": "Hrun", "name:uk": "Грунь", "natural": "peak"}, "geometry": {"type": "Point", "coordinates": [23.5724413, 48.8957901]}, "id": "node/2079095994"}, {"type": "Feature", "properties": {"@id": "node/2079095998", "ele": "1156", "name": "Кіндрат", "name:en": "Kindrat", "name:uk": "Кіндрат", "natural": "peak", "wikidata": "Q31524459"}, "geometry": {"type": "Point", "coordinates": [23.534709, 48.9291343]}, "id": "node/2079095998"}, {"type": "Feature", "properties": {"@id": "node/2079096013", "ele": "1217", "name": "Матагів", "name:en": "Matahiv", "name:uk": "Матагів", "natural": "peak"}, "geometry": {"type": "Point", "coordinates": [23.5656991, 48.9175764]}, "id": "node/2079096013"}, {"type": "Feature", "properties": {"@id": "node/2079096020", "ele": "1078", "name": "Менчелик", "name:en": "Menchelyk", "name:uk": "Менчелик", "natural": "peak"}, "geometry": {"type": "Point", "coordinates": [23.511744, 48.9317159]}, "id": "node/2079096020"}, {"type": "Feature", "properties": {"@id": "node/2081530078", "ele": "676", "name": "Погар", "name:en": "Pohar", "name:uk": "Погар", "natural": "peak"}, "geometry": {"type": "Point", "coordinates": [23.695732, 49.0395074]}, "id": "node/2081530078"}, {"type": "Feature", "properties": {"@id": "node/2082155086", "ele": "984", "name": "Маковиця", "name:en": "Makovytsia", "name:ru": "Маковица", "name:uk": "Маковиця", "natural": "peak", "wikidata": "Q195179", "wikipedia": "uk:Маковиця (Яремче)"}, "geometry": {"type": "Point", "coordinates": [24.5894543, 48.4509972]}, "id": "node/2082155086"}, {"type": "Feature", "properties": {"@id": "node/2082161319", "alt_name": "Костел", "ele": "1049", "name": "Костел (Ґорґан)", "name:en": "Gorgan", "name:uk": "Костел (Ґорґан)", "natural": "peak"}, "geometry": {"type": "Point", "coordinates": [24.6581077, 48.4028742]}, "id": "node/2082161319"}, {"type": "Feature", "properties": {"@id": "node/2082532408", "ele": "1217", "name": "Зелена", "name:en": "Zelena", "name:ru": "Зелёная", "name:uk": "Зелена", "natural": "peak"}, "geometry": {"type": "Point", "coordinates": [23.4313204, 49.0579163]}, "id": "node/2082532408"}, {"type": "Feature", "properties": {"@id": "node/2082532409", "ele": "1178", "name": "Корчанка", "name:en": "Korchanka", "name:uk": "Корчанка", "natural": "peak"}, "geometry": {"type": "Point", "coordinates": [23.4559792, 49.0354685]}, "id": "node/2082532409"}, {"type": "Feature", "properties": {"@id": "node/2082532410", "ele": "1177", "name": "Оброслий Верх", "name:en": "Obroslyi Verkh", "name:uk": "Оброслий Верх", "natural": "peak"}, "geometry": {"type": "Point", "coordinates": [23.4379173, 49.0533036]}, "id": "node/2082532410"}, {"type": "Feature", "properties": {"@id": "node/2082532411", "ele": "1227", "name": "Тимків Верх", "name:en": "Tymkiv Verkh", "name:ru": "Тимков Верх", "name:uk": "Тимків Верх", "natural": "peak"}, "geometry": {"type": "Point", "coordinates": [23.4243418, 49.0633893]}, "id": "node/2082532411"}, {"type": "Feature", "properties": {"@id": "node/2082987621", "ele": "526", "name": "Кам’яний Горб", "name:en": "Kamianyi Horb", "name:ru": "Каменный Горб", "name:uk": "Кам’яний Горб", "natural": "peak"}, "geometry": {"type": "Point", "coordinates": [23.4751348, 49.2553336]}, "id": "node/2082987621"}, {"type": "Feature", "properties": {"@id": "node/2085554799", "ele": "1612", "name": "Руська", "name:en": "Ruska", "name:uk": "Руська", "natural": "peak", "wikidata": "Q4400412", "wikipedia": "uk:Руська (гора)"}, "geometry": {"type": "Point", "coordinates": [24.2268126, 48.3556229]}, "id": "node/2085554799"}, {"type": "Feature", "properties": {"@id": "node/2085577787", "ele": "1216", "name": "Ягідна", "name:en": "Yahidna", "name:ru": "Ягодная", "name:uk": "Ягідна", "natural": "peak"}, "geometry": {"type": "Point", "coordinates": [24.6030479, 48.3585825]}, "id": "node/2085577787"}, {"type": "Feature", "properties": {"@id": "node/2094856233", "ele": "1233", "name": "Беньки", "name:en": "Benky", "name:uk": "Беньки", "natural": "peak"}, "geometry": {"type": "Point", "coordinates": [23.5657872, 48.9746278]}, "id": "node/2094856233"}, {"type": "Feature", "properties": {"@id": "node/2094856237", "ele": "1260", "name": "Мутна", "name:en": "Mutna", "name:uk": "Мутна", "natural": "peak"}, "geometry": {"type": "Point", "coordinates": [23.5470407, 48.9751367]}, "id": "node/2094856237"}, {"type": "Feature", "properties": {"@id": "node/2128611902", "alt_name": "Цюхів Діл", "ele": "939", "loc_name": "Цюхів", "name": "Цюхів Верх", "name:en": "Tsiukhiv Verkh", "name:pl": "Ciuchowy Dział", "name:uk": "Цюхів Верх", "natural": "peak", "wikidata": "Q30961393", "wikipedia": "uk:Цюхів"}, "geometry": {"type": "Point", "coordinates": [23.4311796, 49.219652]}, "id": "node/2128611902"}, {"type": "Feature", "properties": {"@id": "node/2149611004", "ele": "1518", "name": "Пробита (Прелука)", "name:en": "Probyta (Preluka)", "name:uk": "Пробита (Прелука)", "natural": "peak"}, "geometry": {"type": "Point", "coordinates": [23.9071651, 48.4837644]}, "id": "node/2149611004"}, {"type": "Feature", "properties": {"@id": "node/2149611197", "ele": "1607", "name": "Велика Кепута", "name:en": "Velyka Keputa", "name:uk": "Велика Кепута", "natural": "peak", "source": "wikipedia"}, "geometry": {"type": "Point", "coordinates": [23.9630343, 48.4578934]}, "id": "node/2149611197"}, {"type": "Feature", "properties": {"@id": "node/2149611198", "ele": "1310", "name": "Гробок", "name:en": "Hrobok", "name:uk": "Гробок", "natural": "peak", "source": "wikipedia"}, "geometry": {"type": "Point", "coordinates": [24.0347388, 48.5019824]}, "id": "node/2149611198"}, {"type": "Feature", "properties": {"@id": "node/2149611200", "ele": "1620", "name": "Мала Кепута", "name:en": "Mala Keputa", "name:uk": "Мала Кепута", "natural": "peak", "source": "wikipedia"}, "geometry": {"type": "Point", "coordinates": [23.9951907, 48.468529]}, "id": "node/2149611200"}, {"type": "Feature", "properties": {"@id": "node/2149618632", "ele": "1213", "name": "Пантир", "name:en": "Pantyr", "name:pl": "Pantyr", "name:uk": "Пантир", "natural": "peak", "source": "wikipedia", "wikidata": "Q4344342", "wikipedia": "uk:Пантир"}, "geometry": {"type": "Point", "coordinates": [24.1415445, 48.436225]}, "id": "node/2149618632"}, {"type": "Feature", "properties": {"@id": "node/2149750870", "ele": "1471", "name": "Вихід", "name:en": "Vykhid", "name:pl": "Wichid", "name:uk": "Вихід", "natural": "peak", "source": "wikipedia", "wikidata": "Q4129885", "wikipedia": "uk:Вихід (гора)"}, "geometry": {"type": "Point", "coordinates": [24.577231, 48.0176758]}, "id": "node/2149750870"}, {"type": "Feature", "properties": {"@id": "node/2211572515", "ele": "819", "name": "Мельнична", "name:en": "Melnychna", "name:ru": "Мельничная", "name:uk": "Мельнична", "natural": "peak"}, "geometry": {"type": "Point", "coordinates": [23.3409119, 49.2111751]}, "id": "node/2211572515"}, {"type": "Feature", "properties": {"@id": "node/2211580397", "ele": "1178", "name": "Високий Верх", "name:en": "Vysokyi Verkh", "name:uk": "Високий Верх", "natural": "peak"}, "geometry": {"type": "Point", "coordinates": [23.3472768, 49.1127316]}, "id": "node/2211580397"}, {"type": "Feature", "properties": {"@id": "node/2211583893", "alt_name": "Коньова", "alt_name:en": "Koniova", "ele": "886", "name": "Небесної Сотні", "name:en": "Nebesnoi Sotni", "name:uk": "Небесної Сотні", "natural": "peak", "old_name": "Горб", "wikidata": "Q56368352", "wikipedia": "uk:Героїв Небесної сотні (гора)"}, "geometry": {"type": "Point", "coordinates": [23.3000667, 49.1643748]}, "id": "node/2211583893"}, {"type": "Feature", "properties": {"@id": "node/2211589245", "ele": "1036", "name": "Щавина", "name:en": "Shchavyna", "name:uk": "Щавина", "natural": "peak"}, "geometry": {"type": "Point", "coordinates": [23.3160362, 49.1385454]}, "id": "node/2211589245"}, {"type": "Feature", "properties": {"@id": "node/2211591108", "ele": "872", "name": "Городок", "name:en": "Horodok", "name:pl": "Horodek", "name:uk": "Городок", "natural": "peak"}, "geometry": {"type": "Point", "coordinates": [23.2942429, 49.158402]}, "id": "node/2211591108"}, {"type": "Feature", "properties": {"@id": "node/2211614789", "ele": "1132", "name": "Виднога", "name:en": "Vydnoha", "name:uk": "Виднога", "natural": "peak"}, "geometry": {"type": "Point", "coordinates": [23.326766, 49.1002026]}, "id": "node/2211614789"}, {"type": "Feature", "properties": {"@id": "node/2211615062", "ele": "1110", "name": "Кривий Верх", "name:en": "Kryvyiy Verkh", "name:pl": "Krzywy Werch", "name:ru": "Крывый Верх", "name:uk": "Кривий Верх", "natural": "peak"}, "geometry": {"type": "Point", "coordinates": [23.3462326, 49.0806914]}, "id": "node/2211615062"}, {"type": "Feature", "properties": {"@id": "node/2211662022", "ele": "1213", "name": "Перекоп", "name:en": "Perekop", "name:uk": "Перекоп", "natural": "peak"}, "geometry": {"type": "Point", "coordinates": [23.3398192, 49.0562807]}, "id": "node/2211662022"}, {"type": "Feature", "properties": {"@id": "node/2211671043", "ele": "1057", "name": "Секул", "name:en": "Sekul", "name:uk": "Секул", "natural": "peak"}, "geometry": {"type": "Point", "coordinates": [23.3912685, 49.0213894]}, "id": "node/2211671043"}, {"type": "Feature", "properties": {"@id": "node/2215862139", "ele": "944", "name": "Липовали", "name:en": "Lypovaly", "name:uk": "Липовали", "natural": "peak"}, "geometry": {"type": "Point", "coordinates": [23.262052, 49.1365189]}, "id": "node/2215862139"}, {"type": "Feature", "properties": {"@id": "node/2215865713", "ele": "1120", "name": "Погар", "name:en": "Pohar", "name:pl": "Pohar", "name:uk": "Погар", "natural": "peak"}, "geometry": {"type": "Point", "coordinates": [23.2485701, 49.0848878]}, "id": "node/2215865713"}, {"type": "Feature", "properties": {"@id": "node/2215868803", "ele": "1165", "name": "Мала Щебела", "name:en": "Mala Shchebela", "name:uk": "Мала Щебела", "natural": "peak"}, "geometry": {"type": "Point", "coordinates": [23.244087, 49.0658945]}, "id": "node/2215868803"}, {"type": "Feature", "properties": {"@id": "node/2215871636", "ele": "1030", "name": "Росохачка", "name:en": "Rosokhachka", "name:uk": "Росохачка", "natural": "peak"}, "geometry": {"type": "Point", "coordinates": [23.2555863, 49.0466064]}, "id": "node/2215871636"},